AREA_NM,ADDR,VIEWS,MONTH,Region,Latitude,Longitude
어린이교통공원,제주특별자치도 제주시 명림로 437 (봉개동 4.3 공원 맞은편),106.0,1,(봉개동,33.4514707449038,126.623315505216
도그앤캣,제주특별자치도 서귀포시 홍중로 119-2  601동 107호,42.0,1,601동,33.2631200520785,126.555208973226
제주하늘을날다(패러글라이딩),제주특별자치도 제주시 도남로17길 32 영산홍아파트 가동,227.0,1,가동,33.4911356491329,126.53143833943
서건도,제주특별자치도 서귀포시 강정동 산 1,150.0,1,강정동,33.230076674038,126.498485934147
산지천,제주특별자치도 제주시 건입동,134.0,1,건입동,33.5150321079833,126.531518045313
흑돼지거리,제주특별자치도 제주시 건입동,114.0,1,건입동,33.5150321079833,126.531518045313
비자림,제주특별자치도 제주시 구좌읍 비자숲길 55,6894.0,1,구좌읍,33.4910972819998,126.811461205688
만장굴,제주특별자치도 제주시 구좌읍 만장굴길 182,5728.0,1,구좌읍,33.5283774190136,126.771615754394
아부오름,제주특별자치도 제주시 구좌읍 송당리 산 164-1,1011.0,1,구좌읍,33.4476795924933,126.777366485068
세화해변,제주특별자치도 제주시 구좌읍 해녀박물관길 27,965.0,1,구좌읍,33.5233717133389,126.862239713197
월정리해변,제주특별자치도 제주시 구좌읍 월정리 33-3,955.0,1,구좌읍,33.555112541169,126.798640676717
제주동백수목원,제주특별자치도 서귀포시 남원읍 위미중앙로300번길 15,1770.0,1,남원읍,33.2727234850834,126.675138292326
동백포레스트,서귀포시 남원읍 신례리 1767,1432.0,1,남원읍,33.3003449035082,126.636216133758
휴애리 자연생활공원,"제주특별자치도 서귀포시 남원읍 신례동로 256 (신례리, 휴애리)",1111.0,1,남원읍,33.3085347525753,126.634380832055
위미리 동백나무군락,제주특별자치도 서귀포시 남원읍 위미중앙로300번길 23-7,848.0,1,남원읍,0.0,0.0
물영아리오름,제주특별자치도 서귀포시 남원읍 남조로 988-11,529.0,1,남원읍,33.3612712046496,126.692962246783
신비의도로카트체험장,제주특별자치도 제주시 노형동 187-3,132.0,1,노형동,33.4622212079716,126.484854697615
제주시 충혼묘지 4·3추모비(박진경 추도비),제주특별자치도 제주시 노형동 산 19-2,60.0,1,노형동,33.4117938658122,126.491828714548
가파도,제주특별자치도 서귀포시 대정읍 가파리,1222.0,1,대정읍,33.1697319370923,126.271293664433
송악산 [출입제한 - 자연휴식년제 적용 중],제주특별자치도 서귀포시 대정읍 송악관광로 421-1,1078.0,1,대정읍,33.2077669201535,126.290887906913
노리매공원,제주특별자치도 서귀포시 대정읍 중산간서로 2260-15,421.0,1,대정읍,33.2825441646059,126.287343832589
초콜릿박물관,제주특별자치도 서귀포시 대정읍 일주서로3000번길 144,400.0,1,대정읍,33.257052827111,126.229932868924
모슬포항,제주특별자치도 서귀포시 대정읍 신영로36번길 48,399.0,1,대정읍,33.2190593080686,126.24841489851
도두동 무지개 해안도로,제주특별자치도 제주시 도두1동,1158.0,1,도두1동,33.5010079784134,126.474247107518
제주올레 17코스,제주특별자치도 제주시 도두1동 2612-1,182.0,1,도두1동,33.50524279514,126.468217854413
도두해안도로,제주특별자치도 제주시 도두2동 706-3,39.0,1,도두2동,33.510401625438,126.482338576502
도두봉,제주특별자치도 제주시 도두동 산 1,685.0,1,도두동,33.5085344192839,126.469041395771
범섬,제주특별자치도 서귀포시 법환동,261.0,1,법환동,33.2431480688709,126.514144783946
제주올레 6코스,제주특별자치도 서귀포시 보목동 1377-4,199.0,1,보목동,33.2371501897263,126.596001249754
제지기오름,제주특별자치도 서귀포시 보목동 275-1,91.0,1,보목동,33.24177090588,126.610078628977
"안세미 (명도오름,明道岳)",제주특별자치도 제주시 봉개동 산2,46.0,1,봉개동,33.468206886739,126.606102137369
개오리오름,제주특별자치도 제주시 봉개동,41.0,1,봉개동,33.4917232670658,126.594687244154
아라리오뮤지엄탑동시네마,제주특별자치도 제주시 삼도2동 1261-8,97.0,1,삼도2동,33.517445248574,126.523396875442
제주올레 18코스,제주특별자치도 제주시 삼양1동 1131-2,144.0,1,삼양1동,33.5286552757978,126.596319573991
삼양 셋다리물,제주특별자치도 제주시 삼양1동 1938-9,55.0,1,삼양1동,33.5289556528478,126.589153338424
삼양해안도로,제주특별자치도 제주시 삼양2동,50.0,1,삼양2동,33.5228672016569,126.584664643949
삼양해수욕장,제주특별자치도 제주시 삼양동,233.0,1,삼양동,33.521885794087,126.585599365994
서귀다원,제주특별자치도 서귀포시 상효동 산 118,641.0,1,상효동,0.0,0.0
1100고지습지,제주특별자치도 서귀포시 색달동 산 1-2,4075.0,1,색달동,33.3575245371214,126.462896523457
별내린전망대,제주특별자치도 서귀포시 색달동 2938-1,187.0,1,색달동,33.2474860429014,126.416836511421
솔동산8경,제주특별자치도 서귀포시 서귀동 솔동산로,62.0,1,서귀동,0.0,0.0
천지연기정길,제주특별자치도서귀포시 서귀동 961-33,55.0,1,서귀동,33.2471973965458,126.554863002553
제주올레 7-1코스,제주특별자치도 서귀포시 서호동 553-1,76.0,1,서호동,33.2678472135273,126.520104904348
서귀포해안,제주특별자치도 서귀포시 서호동,49.0,1,서호동,33.2641864864094,126.517346819897
바람모루,제주특별자치도 서귀포시 서호동,47.0,1,서호동,33.2641864864094,126.517346819897
황우지해안,제주특별자치도 서귀포시 서홍동 766-1,776.0,1,서홍동,33.2415695572508,126.549766357796
새연교,제주특별자치도 서귀포시 서홍동 707-4,629.0,1,서홍동,33.2385316399892,126.558886662963
외돌개,제주특별자치도 서귀포시 서홍동 791,608.0,1,서홍동,33.240076867127,126.545663944153
제주올레 7코스,제주특별자치도 서귀포시 서홍동 795-1,413.0,1,서홍동,33.2405417950496,126.548102419629
서귀포칠십리시공원,제주특별자치도 서귀포시 서홍동 576-9,287.0,1,서홍동,33.2460184148318,126.553476831206
성산초등학교 서청특별중대 주둔지,제주특별자치도 서귀포시 성산면 성산리 171-9,67.0,1,성산면,0.0,0.0
성산일출봉(UNESCO 세계자연유산),제주특별자치도 서귀포시 성산읍 일출로 284-12,7101.0,1,성산읍,33.462233758483,126.936800689963
섭지코지,제주특별자치도 서귀포시 성산읍 섭지코지로 107,3082.0,1,성산읍,33.4260423785235,126.926442688389
아쿠아플라넷 제주,제주특별자치도 서귀포시 성산읍 섭지코지로 95,912.0,1,성산읍,33.4329768585971,126.927795526895
광치기해변,제주특별자치도 서귀포시 성산읍 섭지코지로 63,798.0,1,성산읍,33.4370213964037,126.922403414639
제주참숯가마찜질방,제주특별자치도 서귀포시 성산읍 삼달로 47,503.0,1,성산읍,33.3689980183077,126.863298247296
산천단,제주특별자치도 제주시 아라1동 392-3,110.0,1,아라1동,33.4478193727017,126.552991048883
삼의악트레킹코스,제주특별자치도 제주시 아라동 산 24-2,109.0,1,아라동,33.4395285589061,126.561922654444
세미오름(삼의양오름),제주특별자치도 제주시 아라동 산 24-2,60.0,1,아라동,33.4395285589061,126.561922654444
용머리해안,제주특별자치도 서귀포시 안덕면 사계리,2780.0,1,안덕면,33.2316941376585,126.306514122101
카멜리아힐,제주 서귀포시 안덕면 병악로 166,1685.0,1,안덕면,33.290140185764,126.368365225196
산방산,제주특별자치도 서귀포시 안덕면 사계리 산 16,1604.0,1,안덕면,33.2423923919045,126.313950830111
방주교회,제주특별자치도 서귀포시 안덕면 산록남로762번길 113,1382.0,1,안덕면,33.305124721628,126.387787906087
이니스프리제주하우스,제주특별자치도 서귀포시 안덕면 신화역사로 23,1215.0,1,안덕면,33.3066749563549,126.290892953867
새별오름,제주특별자치도 제주시 애월읍 봉성리 산 59-8,4342.0,1,애월읍,33.3674086988003,126.355252824574
윗세오름(웃세오름),제주특별자치도 제주시 애월읍 광령리 산 183-1,3344.0,1,애월읍,33.3708702070152,126.477745019755
애월한담해안산책로,제주특별자치도 제주시 애월읍 곽지리 1359,1448.0,1,애월읍,33.4590846763959,126.310575628004
애월해안도로,제주특별자치도 제주시 애월읍 애월해안로,772.0,1,애월읍,0.0,0.0
곽지해수욕장,제주특별자치도 제주시 애월읍 애월원당길 (곽지리),539.0,1,애월읍,0.0,0.0
제주컨트리클럽,제주특별자치도 제주시 영평동 2263-5,27.0,1,영평동,33.4303670043488,126.582307640104
오라동 청보리-메밀꽃밭,제주특별자치도 제주시 오라2동 산 76,265.0,1,오라2동,33.4271589152458,126.505783566255
민오름(오라동),제주특별자치도 제주시 오라2동 산 12,187.0,1,오라2동,33.4765241326101,126.506443018327
연대포구,제주특별자치도 제주시 외도2동,47.0,1,외도2동,33.4945540285904,126.433653396456
용연카누클럽,제주특별자치도 제주시 용담2동 438,47.0,1,용담2동,33.5156113803978,126.513990110664
용두암해안도로카페거리,제주특별자치도 제주시 용담3동,302.0,1,용담3동,33.5176026138478,126.492845368496
다끄네포구(용담포구),제주특별자치도 제주시 용담3동,77.0,1,용담3동,33.5176026138478,126.492845368496
우도(해양도립공원),제주특별자치도 제주시 우도면 삼양고수물길 1,7362.0,1,우도면,33.5194719510559,126.951016739939
우도산호해변 홍조단괴 서빈백사,제주특별자치도 제주시 우도면 우도해안길 252,288.0,1,우도면,33.5026665933324,126.94374024047
우도 비양도,제주특별자치도 제주시 우도면 연평리,231.0,1,우도면,33.5059831398525,126.960256641493
검멀레해변,제주특별자치도 제주시 우도면 우도해안길,230.0,1,우도면,0.0,0.0
훈데르트바서파크,제주특별자치도 제주시 우도면 우도해안길 32-12,148.0,1,우도면,33.4931638593845,126.955738334149
이호털보네배낚시,제주특별자치도 제주시 이호1동 1787,50.0,1,이호1동,33.4971983959717,126.449357934605
현사포구,제주특별자치도 제주시 이호1동,50.0,1,이호1동,33.4993272538259,126.457478118712
사려니숲길,제주특별자치도 제주시 조천읍 교래리 산 137-1,9038.0,1,조천읍,33.4077032050543,126.644672355063
함덕해수욕장,제주특별자치도 제주시 조천읍 조함해안로 519-10,1733.0,1,조천읍,33.5437022656737,126.668709879591
에코랜드 테마파크,제주특별자치도 제주시 조천읍 번영로 1278-169,1225.0,1,조천읍,33.4553485144602,126.668852765522
동백동산,제주특별자치도 제주시 조천읍 선흘리 산 12,1118.0,1,조천읍,33.5166343200874,126.717031226683
산굼부리,제주특별자치도 제주시 조천읍 비자림로 768,882.0,1,조천읍,33.4348735442325,126.688504038171
추자도,제주특별자치도 제주시 추자면 추자도,241.0,1,추자면,0.0,0.0
나바론절벽,제주특별자치도 제주시 추자면 영흥리 산 19,82.0,1,추자면,33.9564400554597,126.293961476379
제주올레 18-1코스,제주특별자치도 제주시 추자면 묵리 산 133,72.0,1,추자면,33.9518718453954,126.307710882585
최영장군사당,제주특별자치도 제주시 추자면 대서3길 10,70.0,1,추자면,33.9643413785399,126.29629617008
모진이몽돌해변,제주특별자치도 제주시 추자면 신양리 56,64.0,1,추자면,33.9461033806051,126.333931047811
백록담,제주특별자치도 서귀포시 토평동 산 15-1,1551.0,1,토평동,33.3469026219773,126.535454418798
백약이오름 [출입제한 - 자연휴식년제 적용 중],제주특별자치도 서귀포시 표선면 성읍리 산 1,1311.0,1,표선면,33.4373134785332,126.791777669204
다이나믹메이즈,제주특별자치도 서귀포시 표선면 번영로 2644,745.0,1,표선면,33.3991114773805,126.784705796572
보롬왓,제주특별자치도 서귀포시 표선면 번영로 2350-104,628.0,1,표선면,33.4134956403949,126.752494805945
성읍민속마을,제주특별자치도 서귀포시 표선면 성읍정의현로 19,527.0,1,표선면,33.3845106375498,126.800376745803
따라비오름,제주특별자치도 서귀포시 표선면 가시리 산 62,505.0,1,표선면,33.3860381518026,126.750266535353
논짓물,제주특별자치도 서귀포시 하예동,383.0,1,하예동,33.2412109273802,126.378717518735
하예포구(예래포구),제주특별자치도 서귀포시 하예동,62.0,1,하예동,33.2412109273802,126.378717518735
열리해안길,제주특별자치도 서귀포시 하예동,58.0,1,하예동,33.2412109273802,126.378717518735
영실기암,제주특별자치도 서귀포시 하원동,126.0,1,하원동,33.2785360586219,126.4660226653
쇠소깍해변,제주특별자치도 서귀포시 하효동,208.0,1,하효동,33.2566103527058,126.618338420041
게우지코지,제주특별자치도 서귀포시 하효동,110.0,1,하효동,33.2566103527058,126.618338420041
수월봉,제주특별자치도 제주시 한경면 고산리 3760,1046.0,1,한경면,33.2947654332257,126.163419003191
수월봉 지질트레일,제주특별자치도 제주시 한경면 노을해안로 1013-70,972.0,1,한경면,33.2942011923765,126.1629872247
신창풍차해안도로,제주특별자치도 제주시 한경면 신창리 1322-1,625.0,1,한경면,33.3434285042685,126.173908545785
환상숲 곶자왈공원,제주특별자치도 제주시 한경면 녹차분재로 594-1,567.0,1,한경면,33.3225720333875,126.263238052577
제주유리의성,제주특별자치도 제주시 한경면 녹차분재로 462,467.0,1,한경면,33.3146338680657,126.273662413462
협재해수욕장,제주특별자치도 제주시 한림읍 한림로 329-10,1935.0,1,한림읍,33.393748028429,126.239431893466
성이시돌목장,제주특별자치도 제주시 한림읍 산록남로 53,679.0,1,한림읍,33.3459802899171,126.321867724832
한림공원,제주특별자치도 제주시 한림읍 한림로 300(협재리),678.0,1,한림읍,33.3902248567191,126.239691183153
월령선인장군락지,제주특별자치도 제주시 한림읍 월령3길 27-4,517.0,1,한림읍,33.3778797661789,126.215712425616
금능해수욕장,제주특별자치도 제주시 한림읍 금능길 119-10,483.0,1,한림읍,33.3904006277236,126.236205125385
어승생,제주특별자치도 제주시 해안동 1100도로 555번지 (해안동 산220-12번지),593.0,1,해안동,33.4570006190886,126.458680781874
돔베낭골,제주특별자치도 서귀포시 호근동,83.0,1,호근동,33.2615116284173,126.532760043118
각시바우오름,제주특별자치도 서귀포시 호근동 2112,43.0,1,호근동,33.276757462252,126.526958677517
곤흘동(곤을동) 마을터,제주특별자치도 제주시 화북1동 4438,106.0,1,화북1동,33.5217669475539,126.557395611224
별도포구,제주특별자치도 제주시 화북1동 4269-12,45.0,1,화북1동,33.5250263073704,126.564933622735
별도연대,제주특별자치도 제주시 화북1동 1537,43.0,1,화북1동,33.5262998282849,126.568135044311
화북비석거리,제주특별자치도 제주시  화북1동 4008,34.0,1,화북1동,33.5212210778459,126.559989000223
삼사석,제주특별자치도 제주시 화북1동 1380-1,32.0,1,화북1동,33.5209736780911,126.573782866815
화북환해장성,제주특별자치도 제주시 화북동,46.0,1,화북동,33.5202191791981,126.565465645477
어린이교통공원,제주특별자치도 제주시 명림로 437 (봉개동 4.3 공원 맞은편),112.0,2,(봉개동,33.4514707449038,126.623315505216
도그앤캣,제주특별자치도 서귀포시 홍중로 119-2  601동 107호,39.0,2,601동,33.2631200520785,126.555208973226
제주하늘을날다(패러글라이딩),제주특별자치도 제주시 도남로17길 32 영산홍아파트 가동,146.0,2,가동,33.4911356491329,126.53143833943
서건도,제주특별자치도 서귀포시 강정동 산 1,135.0,2,강정동,33.230076674038,126.498485934147
산지천,제주특별자치도 제주시 건입동,116.0,2,건입동,33.5150321079833,126.531518045313
흑돼지거리,제주특별자치도 제주시 건입동,70.0,2,건입동,33.5150321079833,126.531518045313
비자림,제주특별자치도 제주시 구좌읍 비자숲길 55,7953.0,2,구좌읍,33.4910972819998,126.811461205688
만장굴,제주특별자치도 제주시 구좌읍 만장굴길 182,2351.0,2,구좌읍,33.5283774190136,126.771615754394
다랑쉬오름(월랑봉),제주특별자치도 제주시 구좌읍 세화리 2705,1033.0,2,구좌읍,33.4750169662769,126.826518297601
아부오름,제주특별자치도 제주시 구좌읍 송당리 산 164-1,1031.0,2,구좌읍,33.4476795924933,126.777366485068
김녕해수욕장,제주특별자치도 제주시 구좌읍 구좌해안로 237,1021.0,2,구좌읍,33.5572081367731,126.736551213927
휴애리 자연생활공원,"제주특별자치도 서귀포시 남원읍 신례동로 256 (신례리, 휴애리)",1212.0,2,남원읍,33.3085347525753,126.634380832055
제주동백수목원,제주특별자치도 서귀포시 남원읍 위미중앙로300번길 15,936.0,2,남원읍,33.2727234850834,126.675138292326
동백포레스트,서귀포시 남원읍 신례리 1767,672.0,2,남원읍,33.3003449035082,126.636216133758
머체왓숲길,제주특별자치도 서귀포시 남원읍 서성로 755,493.0,2,남원읍,33.3305225860707,126.673899820322
물영아리오름,제주특별자치도 서귀포시 남원읍 남조로 988-11,427.0,2,남원읍,33.3612712046496,126.692962246783
신비의도로카트체험장,제주특별자치도 제주시 노형동 187-3,75.0,2,노형동,33.4622212079716,126.484854697615
제주시 충혼묘지 4·3추모비(박진경 추도비),제주특별자치도 제주시 노형동 산 19-2,32.0,2,노형동,33.4117938658122,126.491828714548
가파도,제주특별자치도 서귀포시 대정읍 가파리,1869.0,2,대정읍,33.1697319370923,126.271293664433
송악산 [출입제한 - 자연휴식년제 적용 중],제주특별자치도 서귀포시 대정읍 송악관광로 421-1,894.0,2,대정읍,33.2077669201535,126.290887906913
노리매공원,제주특별자치도 서귀포시 대정읍 중산간서로 2260-15,576.0,2,대정읍,33.2825441646059,126.287343832589
마라도(마라해양도립공원),제주특별자치도 서귀포시 대정읍 마라로101번길 46,376.0,2,대정읍,33.1186178022129,126.267092741572
초콜릿박물관,제주특별자치도 서귀포시 대정읍 일주서로3000번길 144,361.0,2,대정읍,33.257052827111,126.229932868924
도두동 무지개 해안도로,제주특별자치도 제주시 도두1동,1046.0,2,도두1동,33.5010079784134,126.474247107518
제주올레 17코스,제주특별자치도 제주시 도두1동 2612-1,172.0,2,도두1동,33.50524279514,126.468217854413
도두해안도로,제주특별자치도 제주시 도두2동 706-3,37.0,2,도두2동,33.510401625438,126.482338576502
도두봉,제주특별자치도 제주시 도두동 산 1,547.0,2,도두동,33.5085344192839,126.469041395771
범섬,제주특별자치도 서귀포시 법환동,208.0,2,법환동,33.2431480688709,126.514144783946
제주올레 6코스,제주특별자치도 서귀포시 보목동 1377-4,176.0,2,보목동,33.2371501897263,126.596001249754
제지기오름,제주특별자치도 서귀포시 보목동 275-1,85.0,2,보목동,33.24177090588,126.610078628977
"안세미 (명도오름,明道岳)",제주특별자치도 제주시 봉개동 산2,29.0,2,봉개동,33.468206886739,126.606102137369
개오리오름,제주특별자치도 제주시 봉개동,26.0,2,봉개동,33.4917232670658,126.594687244154
아라리오뮤지엄탑동시네마,제주특별자치도 제주시 삼도2동 1261-8,56.0,2,삼도2동,33.517445248574,126.523396875442
제주올레 18코스,제주특별자치도 제주시 삼양1동 1131-2,166.0,2,삼양1동,33.5286552757978,126.596319573991
삼양 셋다리물,제주특별자치도 제주시 삼양1동 1938-9,31.0,2,삼양1동,33.5289556528478,126.589153338424
삼양해안도로,제주특별자치도 제주시 삼양2동,29.0,2,삼양2동,33.5228672016569,126.584664643949
삼양해수욕장,제주특별자치도 제주시 삼양동,204.0,2,삼양동,33.521885794087,126.585599365994
서귀다원,제주특별자치도 서귀포시 상효동 산 118,547.0,2,상효동,0.0,0.0
1100고지습지,제주특별자치도 서귀포시 색달동 산 1-2,1551.0,2,색달동,33.3575245371214,126.462896523457
별내린전망대,제주특별자치도 서귀포시 색달동 2938-1,103.0,2,색달동,33.2474860429014,126.416836511421
천지연기정길,제주특별자치도서귀포시 서귀동 961-33,44.0,2,서귀동,33.2471973965458,126.554863002553
솔동산8경,제주특별자치도 서귀포시 서귀동 솔동산로,38.0,2,서귀동,0.0,0.0
제주올레 7-1코스,제주특별자치도 서귀포시 서호동 553-1,71.0,2,서호동,33.2678472135273,126.520104904348
바람모루,제주특별자치도 서귀포시 서호동,41.0,2,서호동,33.2641864864094,126.517346819897
서귀포해안,제주특별자치도 서귀포시 서호동,36.0,2,서호동,33.2641864864094,126.517346819897
황우지해안,제주특별자치도 서귀포시 서홍동 766-1,809.0,2,서홍동,33.2415695572508,126.549766357796
외돌개,제주특별자치도 서귀포시 서홍동 791,797.0,2,서홍동,33.240076867127,126.545663944153
새연교,제주특별자치도 서귀포시 서홍동 707-4,657.0,2,서홍동,33.2385316399892,126.558886662963
제주올레 7코스,제주특별자치도 서귀포시 서홍동 795-1,457.0,2,서홍동,33.2405417950496,126.548102419629
서귀포칠십리시공원,제주특별자치도 서귀포시 서홍동 576-9,359.0,2,서홍동,33.2460184148318,126.553476831206
성산초등학교 서청특별중대 주둔지,제주특별자치도 서귀포시 성산면 성산리 171-9,39.0,2,성산면,0.0,0.0
성산일출봉(UNESCO 세계자연유산),제주특별자치도 서귀포시 성산읍 일출로 284-12,7358.0,2,성산읍,33.462233758483,126.936800689963
섭지코지,제주특별자치도 서귀포시 성산읍 섭지코지로 107,3121.0,2,성산읍,33.4260423785235,126.926442688389
광치기해변,제주특별자치도 서귀포시 성산읍 섭지코지로 63,995.0,2,성산읍,33.4370213964037,126.922403414639
아쿠아플라넷 제주,제주특별자치도 서귀포시 성산읍 섭지코지로 95,788.0,2,성산읍,33.4329768585971,126.927795526895
일출랜드,제주특별자치도 서귀포시 성산읍 중산간동로 4150-30,378.0,2,성산읍,33.3849993747039,126.839859897606
산천단,제주특별자치도 제주시 아라1동 392-3,87.0,2,아라1동,33.4478193727017,126.552991048883
삼의악트레킹코스,제주특별자치도 제주시 아라동 산 24-2,73.0,2,아라동,33.4395285589061,126.561922654444
세미오름(삼의양오름),제주특별자치도 제주시 아라동 산 24-2,45.0,2,아라동,33.4395285589061,126.561922654444
용머리해안,제주특별자치도 서귀포시 안덕면 사계리,2956.0,2,안덕면,33.2316941376585,126.306514122101
박수기정,제주특별자치도 서귀포시 안덕면 난드르로 90-25,2140.0,2,안덕면,33.2371648156344,126.358749069441
산방산,제주특별자치도 서귀포시 안덕면 사계리 산 16,1993.0,2,안덕면,33.2423923919045,126.313950830111
카멜리아힐,제주 서귀포시 안덕면 병악로 166,1721.0,2,안덕면,33.290140185764,126.368365225196
산방굴사,제주특별자치도 서귀포시 안덕면 사계리 산 16,1246.0,2,안덕면,33.2423923919045,126.313950830111
새별오름,제주특별자치도 제주시 애월읍 봉성리 산 59-8,4024.0,2,애월읍,33.3674086988003,126.355252824574
윗세오름(웃세오름),제주특별자치도 제주시 애월읍 광령리 산 183-1,1741.0,2,애월읍,33.3708702070152,126.477745019755
애월한담해안산책로,제주특별자치도 제주시 애월읍 곽지리 1359,1690.0,2,애월읍,33.4590846763959,126.310575628004
애월해안도로,제주특별자치도 제주시 애월읍 애월해안로,811.0,2,애월읍,0.0,0.0
곽지해수욕장,제주특별자치도 제주시 애월읍 애월원당길 (곽지리),486.0,2,애월읍,0.0,0.0
제주컨트리클럽,제주특별자치도 제주시 영평동 2263-5,19.0,2,영평동,33.4303670043488,126.582307640104
오라동 청보리-메밀꽃밭,제주특별자치도 제주시 오라2동 산 76,403.0,2,오라2동,33.4271589152458,126.505783566255
민오름(오라동),제주특별자치도 제주시 오라2동 산 12,125.0,2,오라2동,33.4765241326101,126.506443018327
연대포구,제주특별자치도 제주시 외도2동,31.0,2,외도2동,33.4945540285904,126.433653396456
용연카누클럽,제주특별자치도 제주시 용담2동 438,25.0,2,용담2동,33.5156113803978,126.513990110664
용두암해안도로카페거리,제주특별자치도 제주시 용담3동,285.0,2,용담3동,33.5176026138478,126.492845368496
다끄네포구(용담포구),제주특별자치도 제주시 용담3동,26.0,2,용담3동,33.5176026138478,126.492845368496
우도(해양도립공원),제주특별자치도 제주시 우도면 삼양고수물길 1,7135.0,2,우도면,33.5194719510559,126.951016739939
우도 비양도,제주특별자치도 제주시 우도면 연평리,312.0,2,우도면,33.5059831398525,126.960256641493
우도산호해변 홍조단괴 서빈백사,제주특별자치도 제주시 우도면 우도해안길 252,248.0,2,우도면,33.5026665933324,126.94374024047
검멀레해변,제주특별자치도 제주시 우도면 우도해안길,185.0,2,우도면,0.0,0.0
훈데르트바서파크,제주특별자치도 제주시 우도면 우도해안길 32-12,121.0,2,우도면,33.4931638593845,126.955738334149
이호털보네배낚시,제주특별자치도 제주시 이호1동 1787,43.0,2,이호1동,33.4971983959717,126.449357934605
현사포구,제주특별자치도 제주시 이호1동,21.0,2,이호1동,33.4993272538259,126.457478118712
사려니숲길,제주특별자치도 제주시 조천읍 교래리 산 137-1,8355.0,2,조천읍,33.4077032050543,126.644672355063
함덕해수욕장,제주특별자치도 제주시 조천읍 조함해안로 519-10,1959.0,2,조천읍,33.5437022656737,126.668709879591
에코랜드 테마파크,제주특별자치도 제주시 조천읍 번영로 1278-169,1032.0,2,조천읍,33.4553485144602,126.668852765522
동백동산,제주특별자치도 제주시 조천읍 선흘리 산 12,980.0,2,조천읍,33.5166343200874,126.717031226683
산굼부리,제주특별자치도 제주시 조천읍 비자림로 768,896.0,2,조천읍,33.4348735442325,126.688504038171
추자도,제주특별자치도 제주시 추자면 추자도,212.0,2,추자면,0.0,0.0
최영장군사당,제주특별자치도 제주시 추자면 대서3길 10,75.0,2,추자면,33.9643413785399,126.29629617008
제주올레 18-1코스,제주특별자치도 제주시 추자면 묵리 산 133,62.0,2,추자면,33.9518718453954,126.307710882585
모진이몽돌해변,제주특별자치도 제주시 추자면 신양리 56,56.0,2,추자면,33.9461033806051,126.333931047811
나바론절벽,제주특별자치도 제주시 추자면 영흥리 산 19,45.0,2,추자면,33.9564400554597,126.293961476379
백록담,제주특별자치도 서귀포시 토평동 산 15-1,825.0,2,토평동,33.3469026219773,126.535454418798
녹산로유채꽃길,제주특별자치도 서귀포시 표선면 가시리 산 87-15,889.0,2,표선면,33.3984052242241,126.719921380523
보롬왓,제주특별자치도 서귀포시 표선면 번영로 2350-104,784.0,2,표선면,33.4134956403949,126.752494805945
백약이오름 [출입제한 - 자연휴식년제 적용 중],제주특별자치도 서귀포시 표선면 성읍리 산 1,748.0,2,표선면,33.4373134785332,126.791777669204
다이나믹메이즈,제주특별자치도 서귀포시 표선면 번영로 2644,606.0,2,표선면,33.3991114773805,126.784705796572
성읍민속마을,제주특별자치도 서귀포시 표선면 성읍정의현로 19,562.0,2,표선면,33.3845106375498,126.800376745803
논짓물,제주특별자치도 서귀포시 하예동,489.0,2,하예동,33.2412109273802,126.378717518735
열리해안길,제주특별자치도 서귀포시 하예동,38.0,2,하예동,33.2412109273802,126.378717518735
하예포구(예래포구),제주특별자치도 서귀포시 하예동,34.0,2,하예동,33.2412109273802,126.378717518735
영실기암,제주특별자치도 서귀포시 하원동,48.0,2,하원동,33.2785360586219,126.4660226653
쇠소깍해변,제주특별자치도 서귀포시 하효동,181.0,2,하효동,33.2566103527058,126.618338420041
게우지코지,제주특별자치도 서귀포시 하효동,87.0,2,하효동,33.2566103527058,126.618338420041
수월봉 지질트레일,제주특별자치도 제주시 한경면 노을해안로 1013-70,1217.0,2,한경면,33.2942011923765,126.1629872247
수월봉,제주특별자치도 제주시 한경면 고산리 3760,1092.0,2,한경면,33.2947654332257,126.163419003191
신창풍차해안도로,제주특별자치도 제주시 한경면 신창리 1322-1,626.0,2,한경면,33.3434285042685,126.173908545785
환상숲 곶자왈공원,제주특별자치도 제주시 한경면 녹차분재로 594-1,539.0,2,한경면,33.3225720333875,126.263238052577
제주유리의성,제주특별자치도 제주시 한경면 녹차분재로 462,427.0,2,한경면,33.3146338680657,126.273662413462
협재해수욕장,제주특별자치도 제주시 한림읍 한림로 329-10,2100.0,2,한림읍,33.393748028429,126.239431893466
한림공원,제주특별자치도 제주시 한림읍 한림로 300(협재리),835.0,2,한림읍,33.3902248567191,126.239691183153
성이시돌목장,제주특별자치도 제주시 한림읍 산록남로 53,748.0,2,한림읍,33.3459802899171,126.321867724832
금능해수욕장,제주특별자치도 제주시 한림읍 금능길 119-10,564.0,2,한림읍,33.3904006277236,126.236205125385
월령선인장군락지,제주특별자치도 제주시 한림읍 월령3길 27-4,498.0,2,한림읍,33.3778797661789,126.215712425616
어승생,제주특별자치도 제주시 해안동 1100도로 555번지 (해안동 산220-12번지),366.0,2,해안동,33.4570006190886,126.458680781874
돔베낭골,제주특별자치도 서귀포시 호근동,59.0,2,호근동,33.2615116284173,126.532760043118
각시바우오름,제주특별자치도 서귀포시 호근동 2112,39.0,2,호근동,33.276757462252,126.526958677517
곤흘동(곤을동) 마을터,제주특별자치도 제주시 화북1동 4438,100.0,2,화북1동,33.5217669475539,126.557395611224
별도포구,제주특별자치도 제주시 화북1동 4269-12,33.0,2,화북1동,33.5250263073704,126.564933622735
별도연대,제주특별자치도 제주시 화북1동 1537,30.0,2,화북1동,33.5262998282849,126.568135044311
화북비석거리,제주특별자치도 제주시  화북1동 4008,28.0,2,화북1동,33.5212210778459,126.559989000223
삼사석,제주특별자치도 제주시 화북1동 1380-1,24.0,2,화북1동,33.5209736780911,126.573782866815
화북환해장성,제주특별자치도 제주시 화북동,33.0,2,화북동,33.5202191791981,126.565465645477
어린이교통공원,제주특별자치도 제주시 명림로 437 (봉개동 4.3 공원 맞은편),155.0,3,(봉개동,33.4514707449038,126.623315505216
도그앤캣,제주특별자치도 서귀포시 홍중로 119-2  601동 107호,33.0,3,601동,33.2631200520785,126.555208973226
제주하늘을날다(패러글라이딩),제주특별자치도 제주시 도남로17길 32 영산홍아파트 가동,207.0,3,가동,33.4911356491329,126.53143833943
서건도,제주특별자치도 서귀포시 강정동 산 1,171.0,3,강정동,33.230076674038,126.498485934147
산지천,제주특별자치도 제주시 건입동,216.0,3,건입동,33.5150321079833,126.531518045313
흑돼지거리,제주특별자치도 제주시 건입동,99.0,3,건입동,33.5150321079833,126.531518045313
비자림,제주특별자치도 제주시 구좌읍 비자숲길 55,8792.0,3,구좌읍,33.4910972819998,126.811461205688
만장굴,제주특별자치도 제주시 구좌읍 만장굴길 182,3086.0,3,구좌읍,33.5283774190136,126.771615754394
다랑쉬오름(월랑봉),제주특별자치도 제주시 구좌읍 세화리 2705,1543.0,3,구좌읍,33.4750169662769,126.826518297601
김녕해수욕장,제주특별자치도 제주시 구좌읍 구좌해안로 237,1304.0,3,구좌읍,33.5572081367731,126.736551213927
세화해변,제주특별자치도 제주시 구좌읍 해녀박물관길 27,1156.0,3,구좌읍,33.5233717133389,126.862239713197
휴애리 자연생활공원,"제주특별자치도 서귀포시 남원읍 신례동로 256 (신례리, 휴애리)",1468.0,3,남원읍,33.3085347525753,126.634380832055
머체왓숲길,제주특별자치도 서귀포시 남원읍 서성로 755,867.0,3,남원읍,33.3305225860707,126.673899820322
물영아리오름,제주특별자치도 서귀포시 남원읍 남조로 988-11,600.0,3,남원읍,33.3612712046496,126.692962246783
제주동백수목원,제주특별자치도 서귀포시 남원읍 위미중앙로300번길 15,596.0,3,남원읍,33.2727234850834,126.675138292326
남원큰엉해변,제주특별자치도 서귀포시 남원읍 태위로 522-17,365.0,3,남원읍,33.2733498193692,126.703711977934
신비의도로카트체험장,제주특별자치도 제주시 노형동 187-3,95.0,3,노형동,33.4622212079716,126.484854697615
제주시 충혼묘지 4·3추모비(박진경 추도비),제주특별자치도 제주시 노형동 산 19-2,71.0,3,노형동,33.4117938658122,126.491828714548
가파도,제주특별자치도 서귀포시 대정읍 가파리,2433.0,3,대정읍,33.1697319370923,126.271293664433
송악산 [출입제한 - 자연휴식년제 적용 중],제주특별자치도 서귀포시 대정읍 송악관광로 421-1,993.0,3,대정읍,33.2077669201535,126.290887906913
마라도(마라해양도립공원),제주특별자치도 서귀포시 대정읍 마라로101번길 46,566.0,3,대정읍,33.1186178022129,126.267092741572
노리매공원,제주특별자치도 서귀포시 대정읍 중산간서로 2260-15,474.0,3,대정읍,33.2825441646059,126.287343832589
알뜨르비행장,제주특별자치도 서귀포시 대정읍 상모리 1670,421.0,3,대정읍,33.2044507792924,126.272643631117
도두동 무지개 해안도로,제주특별자치도 제주시 도두1동,689.0,3,도두1동,33.5010079784134,126.474247107518
제주올레 17코스,제주특별자치도 제주시 도두1동 2612-1,194.0,3,도두1동,33.50524279514,126.468217854413
도두해안도로,제주특별자치도 제주시 도두2동 706-3,64.0,3,도두2동,33.510401625438,126.482338576502
도두봉,제주특별자치도 제주시 도두동 산 1,676.0,3,도두동,33.5085344192839,126.469041395771
범섬,제주특별자치도 서귀포시 법환동,292.0,3,법환동,33.2431480688709,126.514144783946
제주올레 6코스,제주특별자치도 서귀포시 보목동 1377-4,286.0,3,보목동,33.2371501897263,126.596001249754
제지기오름,제주특별자치도 서귀포시 보목동 275-1,112.0,3,보목동,33.24177090588,126.610078628977
개오리오름,제주특별자치도 제주시 봉개동,50.0,3,봉개동,33.4917232670658,126.594687244154
"안세미 (명도오름,明道岳)",제주특별자치도 제주시 봉개동 산2,30.0,3,봉개동,33.468206886739,126.606102137369
아라리오뮤지엄탑동시네마,제주특별자치도 제주시 삼도2동 1261-8,100.0,3,삼도2동,33.517445248574,126.523396875442
제주올레 18코스,제주특별자치도 제주시 삼양1동 1131-2,173.0,3,삼양1동,33.5286552757978,126.596319573991
삼양 셋다리물,제주특별자치도 제주시 삼양1동 1938-9,56.0,3,삼양1동,33.5289556528478,126.589153338424
삼양해안도로,제주특별자치도 제주시 삼양2동,37.0,3,삼양2동,33.5228672016569,126.584664643949
삼양해수욕장,제주특별자치도 제주시 삼양동,365.0,3,삼양동,33.521885794087,126.585599365994
서귀다원,제주특별자치도 서귀포시 상효동 산 118,529.0,3,상효동,0.0,0.0
1100고지습지,제주특별자치도 서귀포시 색달동 산 1-2,471.0,3,색달동,33.3575245371214,126.462896523457
별내린전망대,제주특별자치도 서귀포시 색달동 2938-1,156.0,3,색달동,33.2474860429014,126.416836511421
천지연기정길,제주특별자치도서귀포시 서귀동 961-33,54.0,3,서귀동,33.2471973965458,126.554863002553
솔동산8경,제주특별자치도 서귀포시 서귀동 솔동산로,53.0,3,서귀동,0.0,0.0
제주올레 7-1코스,제주특별자치도 서귀포시 서호동 553-1,104.0,3,서호동,33.2678472135273,126.520104904348
바람모루,제주특별자치도 서귀포시 서호동,53.0,3,서호동,33.2641864864094,126.517346819897
서귀포해안,제주특별자치도 서귀포시 서호동,49.0,3,서호동,33.2641864864094,126.517346819897
황우지해안,제주특별자치도 서귀포시 서홍동 766-1,1068.0,3,서홍동,33.2415695572508,126.549766357796
외돌개,제주특별자치도 서귀포시 서홍동 791,884.0,3,서홍동,33.240076867127,126.545663944153
새연교,제주특별자치도 서귀포시 서홍동 707-4,772.0,3,서홍동,33.2385316399892,126.558886662963
제주올레 7코스,제주특별자치도 서귀포시 서홍동 795-1,457.0,3,서홍동,33.2405417950496,126.548102419629
서귀포칠십리시공원,제주특별자치도 서귀포시 서홍동 576-9,356.0,3,서홍동,33.2460184148318,126.553476831206
성산초등학교 서청특별중대 주둔지,제주특별자치도 서귀포시 성산면 성산리 171-9,56.0,3,성산면,0.0,0.0
성산일출봉(UNESCO 세계자연유산),제주특별자치도 서귀포시 성산읍 일출로 284-12,7634.0,3,성산읍,33.462233758483,126.936800689963
섭지코지,제주특별자치도 서귀포시 성산읍 섭지코지로 107,3438.0,3,성산읍,33.4260423785235,126.926442688389
광치기해변,제주특별자치도 서귀포시 성산읍 섭지코지로 63,1301.0,3,성산읍,33.4370213964037,126.922403414639
아쿠아플라넷 제주,제주특별자치도 서귀포시 성산읍 섭지코지로 95,1030.0,3,성산읍,33.4329768585971,126.927795526895
제주올레 1코스,제주특별자치도 서귀포시 성산읍 오조리 396-1,519.0,3,성산읍,33.4719633582091,126.91490546392
산천단,제주특별자치도 제주시 아라1동 392-3,74.0,3,아라1동,33.4478193727017,126.552991048883
삼의악트레킹코스,제주특별자치도 제주시 아라동 산 24-2,100.0,3,아라동,33.4395285589061,126.561922654444
세미오름(삼의양오름),제주특별자치도 제주시 아라동 산 24-2,81.0,3,아라동,33.4395285589061,126.561922654444
용머리해안,제주특별자치도 서귀포시 안덕면 사계리,4167.0,3,안덕면,33.2316941376585,126.306514122101
산방산,제주특별자치도 서귀포시 안덕면 사계리 산 16,2337.0,3,안덕면,33.2423923919045,126.313950830111
카멜리아힐,제주 서귀포시 안덕면 병악로 166,2008.0,3,안덕면,33.290140185764,126.368365225196
산방굴사,제주특별자치도 서귀포시 안덕면 사계리 산 16,1363.0,3,안덕면,33.2423923919045,126.313950830111
방주교회,제주특별자치도 서귀포시 안덕면 산록남로762번길 113,1257.0,3,안덕면,33.305124721628,126.387787906087
새별오름,제주특별자치도 제주시 애월읍 봉성리 산 59-8,3957.0,3,애월읍,33.3674086988003,126.355252824574
애월한담해안산책로,제주특별자치도 제주시 애월읍 곽지리 1359,1798.0,3,애월읍,33.4590846763959,126.310575628004
윗세오름(웃세오름),제주특별자치도 제주시 애월읍 광령리 산 183-1,1055.0,3,애월읍,33.3708702070152,126.477745019755
애월해안도로,제주특별자치도 제주시 애월읍 애월해안로,999.0,3,애월읍,0.0,0.0
장전리 벚꽃축제길,제주특별자치도 제주시 애월읍 광상로 403,932.0,3,애월읍,33.4432745956225,126.390602017496
제주컨트리클럽,제주특별자치도 제주시 영평동 2263-5,33.0,3,영평동,33.4303670043488,126.582307640104
오라동 청보리-메밀꽃밭,제주특별자치도 제주시 오라2동 산 76,642.0,3,오라2동,33.4271589152458,126.505783566255
민오름(오라동),제주특별자치도 제주시 오라2동 산 12,184.0,3,오라2동,33.4765241326101,126.506443018327
연대포구,제주특별자치도 제주시 외도2동,39.0,3,외도2동,33.4945540285904,126.433653396456
용연카누클럽,제주특별자치도 제주시 용담2동 438,60.0,3,용담2동,33.5156113803978,126.513990110664
용두암해안도로카페거리,제주특별자치도 제주시 용담3동,270.0,3,용담3동,33.5176026138478,126.492845368496
다끄네포구(용담포구),제주특별자치도 제주시 용담3동,64.0,3,용담3동,33.5176026138478,126.492845368496
우도(해양도립공원),제주특별자치도 제주시 우도면 삼양고수물길 1,8508.0,3,우도면,33.5194719510559,126.951016739939
우도 비양도,제주특별자치도 제주시 우도면 연평리,566.0,3,우도면,33.5059831398525,126.960256641493
우도산호해변 홍조단괴 서빈백사,제주특별자치도 제주시 우도면 우도해안길 252,430.0,3,우도면,33.5026665933324,126.94374024047
검멀레해변,제주특별자치도 제주시 우도면 우도해안길,269.0,3,우도면,0.0,0.0
우도올레보트,제주특별자치도 제주시 우도면 연평리 2562-1,204.0,3,우도면,0.0,0.0
이호털보네배낚시,제주특별자치도 제주시 이호1동 1787,51.0,3,이호1동,33.4971983959717,126.449357934605
현사포구,제주특별자치도 제주시 이호1동,45.0,3,이호1동,33.4993272538259,126.457478118712
사려니숲길,제주특별자치도 제주시 조천읍 교래리 산 137-1,8873.0,3,조천읍,33.4077032050543,126.644672355063
함덕해수욕장,제주특별자치도 제주시 조천읍 조함해안로 519-10,2085.0,3,조천읍,33.5437022656737,126.668709879591
에코랜드 테마파크,제주특별자치도 제주시 조천읍 번영로 1278-169,1199.0,3,조천읍,33.4553485144602,126.668852765522
산굼부리,제주특별자치도 제주시 조천읍 비자림로 768,1024.0,3,조천읍,33.4348735442325,126.688504038171
거문오름(UNESCO 세계자연유산),제주특별자치도 제주시 조천읍 선교로 569-36,872.0,3,조천읍,33.4569198735739,126.714752055141
추자도,제주특별자치도 제주시 추자면 추자도,288.0,3,추자면,0.0,0.0
최영장군사당,제주특별자치도 제주시 추자면 대서3길 10,99.0,3,추자면,33.9643413785399,126.29629617008
모진이몽돌해변,제주특별자치도 제주시 추자면 신양리 56,84.0,3,추자면,33.9461033806051,126.333931047811
제주올레 18-1코스,제주특별자치도 제주시 추자면 묵리 산 133,83.0,3,추자면,33.9518718453954,126.307710882585
나바론절벽,제주특별자치도 제주시 추자면 영흥리 산 19,56.0,3,추자면,33.9564400554597,126.293961476379
백록담,제주특별자치도 서귀포시 토평동 산 15-1,733.0,3,토평동,33.3469026219773,126.535454418798
녹산로유채꽃길,제주특별자치도 서귀포시 표선면 가시리 산 87-15,3246.0,3,표선면,33.3984052242241,126.719921380523
보롬왓,제주특별자치도 서귀포시 표선면 번영로 2350-104,1148.0,3,표선면,33.4134956403949,126.752494805945
백약이오름 [출입제한 - 자연휴식년제 적용 중],제주특별자치도 서귀포시 표선면 성읍리 산 1,803.0,3,표선면,33.4373134785332,126.791777669204
성읍민속마을,제주특별자치도 서귀포시 표선면 성읍정의현로 19,759.0,3,표선면,33.3845106375498,126.800376745803
따라비오름,제주특별자치도 서귀포시 표선면 가시리 산 62,578.0,3,표선면,33.3860381518026,126.750266535353
논짓물,제주특별자치도 서귀포시 하예동,576.0,3,하예동,33.2412109273802,126.378717518735
하예포구(예래포구),제주특별자치도 서귀포시 하예동,60.0,3,하예동,33.2412109273802,126.378717518735
열리해안길,제주특별자치도 서귀포시 하예동,39.0,3,하예동,33.2412109273802,126.378717518735
영실기암,제주특별자치도 서귀포시 하원동,85.0,3,하원동,33.2785360586219,126.4660226653
쇠소깍해변,제주특별자치도 서귀포시 하효동,299.0,3,하효동,33.2566103527058,126.618338420041
게우지코지,제주특별자치도 서귀포시 하효동,119.0,3,하효동,33.2566103527058,126.618338420041
수월봉 지질트레일,제주특별자치도 제주시 한경면 노을해안로 1013-70,1600.0,3,한경면,33.2942011923765,126.1629872247
수월봉,제주특별자치도 제주시 한경면 고산리 3760,1506.0,3,한경면,33.2947654332257,126.163419003191
신창풍차해안도로,제주특별자치도 제주시 한경면 신창리 1322-1,747.0,3,한경면,33.3434285042685,126.173908545785
환상숲 곶자왈공원,제주특별자치도 제주시 한경면 녹차분재로 594-1,702.0,3,한경면,33.3225720333875,126.263238052577
생각하는정원,제주특별자치도 제주시 한경면 녹차분재로 675,565.0,3,한경면,33.3255844945227,126.255005128834
협재해수욕장,제주특별자치도 제주시 한림읍 한림로 329-10,2975.0,3,한림읍,33.393748028429,126.239431893466
한림공원,제주특별자치도 제주시 한림읍 한림로 300(협재리),1115.0,3,한림읍,33.3902248567191,126.239691183153
금능해수욕장,제주특별자치도 제주시 한림읍 금능길 119-10,872.0,3,한림읍,33.3904006277236,126.236205125385
성이시돌목장,제주특별자치도 제주시 한림읍 산록남로 53,811.0,3,한림읍,33.3459802899171,126.321867724832
월령선인장군락지,제주특별자치도 제주시 한림읍 월령3길 27-4,666.0,3,한림읍,33.3778797661789,126.215712425616
어승생,제주특별자치도 제주시 해안동 1100도로 555번지 (해안동 산220-12번지),253.0,3,해안동,33.4570006190886,126.458680781874
돔베낭골,제주특별자치도 서귀포시 호근동,72.0,3,호근동,33.2615116284173,126.532760043118
각시바우오름,제주특별자치도 서귀포시 호근동 2112,46.0,3,호근동,33.276757462252,126.526958677517
곤흘동(곤을동) 마을터,제주특별자치도 제주시 화북1동 4438,189.0,3,화북1동,33.5217669475539,126.557395611224
화북비석거리,제주특별자치도 제주시  화북1동 4008,44.0,3,화북1동,33.5212210778459,126.559989000223
별도포구,제주특별자치도 제주시 화북1동 4269-12,42.0,3,화북1동,33.5250263073704,126.564933622735
별도연대,제주특별자치도 제주시 화북1동 1537,41.0,3,화북1동,33.5262998282849,126.568135044311
삼사석,제주특별자치도 제주시 화북1동 1380-1,25.0,3,화북1동,33.5209736780911,126.573782866815
화북환해장성,제주특별자치도 제주시 화북동,49.0,3,화북동,33.5202191791981,126.565465645477
어린이교통공원,제주특별자치도 제주시 명림로 437 (봉개동 4.3 공원 맞은편),191.0,4,(봉개동,33.4514707449038,126.623315505216
도그앤캣,제주특별자치도 서귀포시 홍중로 119-2  601동 107호,36.0,4,601동,33.2631200520785,126.555208973226
제주하늘을날다(패러글라이딩),제주특별자치도 제주시 도남로17길 32 영산홍아파트 가동,210.0,4,가동,33.4911356491329,126.53143833943
서건도,제주특별자치도 서귀포시 강정동 산 1,392.0,4,강정동,33.230076674038,126.498485934147
산지천,제주특별자치도 제주시 건입동,246.0,4,건입동,33.5150321079833,126.531518045313
흑돼지거리,제주특별자치도 제주시 건입동,131.0,4,건입동,33.5150321079833,126.531518045313
비자림,제주특별자치도 제주시 구좌읍 비자숲길 55,9684.0,4,구좌읍,33.4910972819998,126.811461205688
만장굴,제주특별자치도 제주시 구좌읍 만장굴길 182,3912.0,4,구좌읍,33.5283774190136,126.771615754394
다랑쉬오름(월랑봉),제주특별자치도 제주시 구좌읍 세화리 2705,1894.0,4,구좌읍,33.4750169662769,126.826518297601
김녕해수욕장,제주특별자치도 제주시 구좌읍 구좌해안로 237,1401.0,4,구좌읍,33.5572081367731,126.736551213927
월정리해변,제주특별자치도 제주시 구좌읍 월정리 33-3,1238.0,4,구좌읍,33.555112541169,126.798640676717
휴애리 자연생활공원,"제주특별자치도 서귀포시 남원읍 신례동로 256 (신례리, 휴애리)",1048.0,4,남원읍,33.3085347525753,126.634380832055
머체왓숲길,제주특별자치도 서귀포시 남원읍 서성로 755,688.0,4,남원읍,33.3305225860707,126.673899820322
물영아리오름,제주특별자치도 서귀포시 남원읍 남조로 988-11,674.0,4,남원읍,33.3612712046496,126.692962246783
제주동백수목원,제주특별자치도 서귀포시 남원읍 위미중앙로300번길 15,410.0,4,남원읍,33.2727234850834,126.675138292326
남원큰엉해변,제주특별자치도 서귀포시 남원읍 태위로 522-17,393.0,4,남원읍,33.2733498193692,126.703711977934
제주시 충혼묘지 4·3추모비(박진경 추도비),제주특별자치도 제주시 노형동 산 19-2,181.0,4,노형동,33.4117938658122,126.491828714548
신비의도로카트체험장,제주특별자치도 제주시 노형동 187-3,87.0,4,노형동,33.4622212079716,126.484854697615
가파도,제주특별자치도 서귀포시 대정읍 가파리,1783.0,4,대정읍,33.1697319370923,126.271293664433
송악산,제주특별자치도 서귀포시 대정읍 송악관광로 421-1,1268.0,4,대정읍,33.2077669201535,126.290887906913
마라도(마라해양도립공원),제주특별자치도 서귀포시 대정읍 마라로101번길 46,554.0,4,대정읍,33.1186178022129,126.267092741572
가파도 마라도 정기여객선,제주특별자치도 서귀포시 대정읍 최남단해안로 120,513.0,4,대정읍,33.2100650813269,126.258379774648
알뜨르비행장,제주특별자치도 서귀포시 대정읍 상모리 1670,490.0,4,대정읍,33.2044507792924,126.272643631117
도두동 무지개 해안도로,제주특별자치도 제주시 도두1동,639.0,4,도두1동,33.5010079784134,126.474247107518
제주올레 17코스,제주특별자치도 제주시 도두1동 2612-1,372.0,4,도두1동,33.50524279514,126.468217854413
도두해안도로,제주특별자치도 제주시 도두2동 706-3,57.0,4,도두2동,33.510401625438,126.482338576502
도두봉,제주특별자치도 제주시 도두동 산 1,595.0,4,도두동,33.5085344192839,126.469041395771
범섬,제주특별자치도 서귀포시 법환동,287.0,4,법환동,33.2431480688709,126.514144783946
제주올레 6코스,제주특별자치도 서귀포시 보목동 1377-4,430.0,4,보목동,33.2371501897263,126.596001249754
제지기오름,제주특별자치도 서귀포시 보목동 275-1,111.0,4,보목동,33.24177090588,126.610078628977
개오리오름,제주특별자치도 제주시 봉개동,39.0,4,봉개동,33.4917232670658,126.594687244154
"안세미 (명도오름,明道岳)",제주특별자치도 제주시 봉개동 산2,32.0,4,봉개동,33.468206886739,126.606102137369
아라리오뮤지엄탑동시네마,제주특별자치도 제주시 삼도2동 1261-8,102.0,4,삼도2동,33.517445248574,126.523396875442
제주올레 18코스,제주특별자치도 제주시 삼양1동 1131-2,279.0,4,삼양1동,33.5286552757978,126.596319573991
삼양 셋다리물,제주특별자치도 제주시 삼양1동 1938-9,43.0,4,삼양1동,33.5289556528478,126.589153338424
삼양해안도로,제주특별자치도 제주시 삼양2동,55.0,4,삼양2동,33.5228672016569,126.584664643949
삼양해수욕장,제주특별자치도 제주시 삼양동,379.0,4,삼양동,33.521885794087,126.585599365994
서귀다원,제주특별자치도 서귀포시 상효동 산 118,363.0,4,상효동,0.0,0.0
1100고지습지,제주특별자치도 서귀포시 색달동 산 1-2,472.0,4,색달동,33.3575245371214,126.462896523457
별내린전망대,제주특별자치도 서귀포시 색달동 2938-1,123.0,4,색달동,33.2474860429014,126.416836511421
솔동산8경,제주특별자치도 서귀포시 서귀동 솔동산로,63.0,4,서귀동,0.0,0.0
천지연기정길,제주특별자치도서귀포시 서귀동 961-33,61.0,4,서귀동,33.2471973965458,126.554863002553
제주올레 7-1코스,제주특별자치도 서귀포시 서호동 553-1,154.0,4,서호동,33.2678472135273,126.520104904348
서귀포해안,제주특별자치도 서귀포시 서호동,55.0,4,서호동,33.2641864864094,126.517346819897
바람모루,제주특별자치도 서귀포시 서호동,40.0,4,서호동,33.2641864864094,126.517346819897
황우지해안,제주특별자치도 서귀포시 서홍동 766-1,1037.0,4,서홍동,33.2415695572508,126.549766357796
외돌개,제주특별자치도 서귀포시 서홍동 791,889.0,4,서홍동,33.240076867127,126.545663944153
제주올레 7코스,제주특별자치도 서귀포시 서홍동 795-1,820.0,4,서홍동,33.2405417950496,126.548102419629
새연교,제주특별자치도 서귀포시 서홍동 707-4,749.0,4,서홍동,33.2385316399892,126.558886662963
서귀포칠십리시공원,제주특별자치도 서귀포시 서홍동 576-9,332.0,4,서홍동,33.2460184148318,126.553476831206
성산초등학교 서청특별중대 주둔지,제주특별자치도 서귀포시 성산면 성산리 171-9,70.0,4,성산면,0.0,0.0
성산일출봉(UNESCO 세계자연유산),제주특별자치도 서귀포시 성산읍 일출로 284-12,8414.0,4,성산읍,33.462233758483,126.936800689963
섭지코지,제주특별자치도 서귀포시 성산읍 섭지코지로 107,3825.0,4,성산읍,33.4260423785235,126.926442688389
광치기해변,제주특별자치도 서귀포시 성산읍 섭지코지로 63,1146.0,4,성산읍,33.4370213964037,126.922403414639
아쿠아플라넷 제주,제주특별자치도 서귀포시 성산읍 섭지코지로 95,1025.0,4,성산읍,33.4329768585971,126.927795526895
제주올레 1코스,제주특별자치도 서귀포시 성산읍 오조리 396-1,699.0,4,성산읍,33.4719633582091,126.91490546392
산천단,제주특별자치도 제주시 아라1동 392-3,106.0,4,아라1동,33.4478193727017,126.552991048883
삼의악트레킹코스,제주특별자치도 제주시 아라동 산 24-2,110.0,4,아라동,33.4395285589061,126.561922654444
세미오름(삼의양오름),제주특별자치도 제주시 아라동 산 24-2,60.0,4,아라동,33.4395285589061,126.561922654444
용머리해안,제주특별자치도 서귀포시 안덕면 사계리,4849.0,4,안덕면,33.2316941376585,126.306514122101
산방산,제주특별자치도 서귀포시 안덕면 사계리 산 16,2102.0,4,안덕면,33.2423923919045,126.313950830111
카멜리아힐,제주 서귀포시 안덕면 병악로 166,1808.0,4,안덕면,33.290140185764,126.368365225196
산방굴사,제주특별자치도 서귀포시 안덕면 사계리 산 16,1293.0,4,안덕면,33.2423923919045,126.313950830111
오설록티뮤지엄,제주특별자치도 서귀포시 안덕면 신화역사로 15,1209.0,4,안덕면,33.3059240323368,126.289492214804
새별오름,제주특별자치도 제주시 애월읍 봉성리 산 59-8,3277.0,4,애월읍,33.3674086988003,126.355252824574
애월한담해안산책로,제주특별자치도 제주시 애월읍 곽지리 1359,1709.0,4,애월읍,33.4590846763959,126.310575628004
윗세오름(웃세오름),제주특별자치도 제주시 애월읍 광령리 산 183-1,996.0,4,애월읍,33.3708702070152,126.477745019755
곽지해수욕장,제주특별자치도 제주시 애월읍 애월원당길 (곽지리),918.0,4,애월읍,0.0,0.0
애월해안도로,제주특별자치도 제주시 애월읍 애월해안로,900.0,4,애월읍,0.0,0.0
제주컨트리클럽,제주특별자치도 제주시 영평동 2263-5,32.0,4,영평동,33.4303670043488,126.582307640104
오라동 청보리-메밀꽃밭,제주특별자치도 제주시 오라2동 산 76,1307.0,4,오라2동,33.4271589152458,126.505783566255
민오름(오라동),제주특별자치도 제주시 오라2동 산 12,158.0,4,오라2동,33.4765241326101,126.506443018327
연대포구,제주특별자치도 제주시 외도2동,53.0,4,외도2동,33.4945540285904,126.433653396456
용연카누클럽,제주특별자치도 제주시 용담2동 438,69.0,4,용담2동,33.5156113803978,126.513990110664
용두암해안도로카페거리,제주특별자치도 제주시 용담3동,282.0,4,용담3동,33.5176026138478,126.492845368496
다끄네포구(용담포구),제주특별자치도 제주시 용담3동,57.0,4,용담3동,33.5176026138478,126.492845368496
우도(해양도립공원),제주특별자치도 제주시 우도면 삼양고수물길 1,9309.0,4,우도면,33.5194719510559,126.951016739939
우도산호해변 홍조단괴 서빈백사,제주특별자치도 제주시 우도면 우도해안길 252,431.0,4,우도면,33.5026665933324,126.94374024047
우도 비양도,제주특별자치도 제주시 우도면 연평리,318.0,4,우도면,33.5059831398525,126.960256641493
검멀레해변,제주특별자치도 제주시 우도면 우도해안길,307.0,4,우도면,0.0,0.0
우도올레보트,제주특별자치도 제주시 우도면 연평리 2562-1,209.0,4,우도면,0.0,0.0
이호털보네배낚시,제주특별자치도 제주시 이호1동 1787,52.0,4,이호1동,33.4971983959717,126.449357934605
현사포구,제주특별자치도 제주시 이호1동,47.0,4,이호1동,33.4993272538259,126.457478118712
사려니숲길,제주특별자치도 제주시 조천읍 교래리 산 137-1,9346.0,4,조천읍,33.4077032050543,126.644672355063
함덕해수욕장,제주특별자치도 제주시 조천읍 조함해안로 519-10,3209.0,4,조천읍,33.5437022656737,126.668709879591
에코랜드 테마파크,제주특별자치도 제주시 조천읍 번영로 1278-169,1273.0,4,조천읍,33.4553485144602,126.668852765522
거문오름(UNESCO 세계자연유산),제주특별자치도 제주시 조천읍 선교로 569-36,1135.0,4,조천읍,33.4569198735739,126.714752055141
산굼부리,제주특별자치도 제주시 조천읍 비자림로 768,1097.0,4,조천읍,33.4348735442325,126.688504038171
추자도,제주특별자치도 제주시 추자면 추자도,312.0,4,추자면,0.0,0.0
제주올레 18-1코스,제주특별자치도 제주시 추자면 묵리 산 133,143.0,4,추자면,33.9518718453954,126.307710882585
최영장군사당,제주특별자치도 제주시 추자면 대서3길 10,105.0,4,추자면,33.9643413785399,126.29629617008
나바론절벽,제주특별자치도 제주시 추자면 영흥리 산 19,104.0,4,추자면,33.9564400554597,126.293961476379
모진이몽돌해변,제주특별자치도 제주시 추자면 신양리 56,103.0,4,추자면,33.9461033806051,126.333931047811
백록담,제주특별자치도 서귀포시 토평동 산 15-1,799.0,4,토평동,33.3469026219773,126.535454418798
보롬왓,제주특별자치도 서귀포시 표선면 번영로 2350-104,3685.0,4,표선면,33.4134956403949,126.752494805945
녹산로유채꽃길,제주특별자치도 서귀포시 표선면 가시리 산 87-15,1404.0,4,표선면,33.3984052242241,126.719921380523
백약이오름,제주특별자치도 서귀포시 표선면 성읍리 산 1,855.0,4,표선면,33.4373134785332,126.791777669204
성읍민속마을,제주특별자치도 서귀포시 표선면 성읍정의현로 19,767.0,4,표선면,33.3845106375498,126.800376745803
다이나믹메이즈,제주특별자치도 서귀포시 표선면 번영로 2644,547.0,4,표선면,33.3991114773805,126.784705796572
논짓물,제주특별자치도 서귀포시 하예동,381.0,4,하예동,33.2412109273802,126.378717518735
열리해안길,제주특별자치도 서귀포시 하예동,69.0,4,하예동,33.2412109273802,126.378717518735
하예포구(예래포구),제주특별자치도 서귀포시 하예동,53.0,4,하예동,33.2412109273802,126.378717518735
영실기암,제주특별자치도 서귀포시 하원동,93.0,4,하원동,33.2785360586219,126.4660226653
쇠소깍해변,제주특별자치도 서귀포시 하효동,276.0,4,하효동,33.2566103527058,126.618338420041
게우지코지,제주특별자치도 서귀포시 하효동,117.0,4,하효동,33.2566103527058,126.618338420041
수월봉 지질트레일,제주특별자치도 제주시 한경면 노을해안로 1013-70,2105.0,4,한경면,33.2942011923765,126.1629872247
수월봉,제주특별자치도 제주시 한경면 고산리 3760,1889.0,4,한경면,33.2947654332257,126.163419003191
신창풍차해안도로,제주특별자치도 제주시 한경면 신창리 1322-1,690.0,4,한경면,33.3434285042685,126.173908545785
환상숲 곶자왈공원,제주특별자치도 제주시 한경면 녹차분재로 594-1,677.0,4,한경면,33.3225720333875,126.263238052577
차귀도,제주특별자치도 제주시 한경면 고산리 125,492.0,4,한경면,0.0,0.0
협재해수욕장,제주특별자치도 제주시 한림읍 한림로 329-10,3267.0,4,한림읍,33.393748028429,126.239431893466
금능해수욕장,제주특별자치도 제주시 한림읍 금능길 119-10,1111.0,4,한림읍,33.3904006277236,126.236205125385
성이시돌목장,제주특별자치도 제주시 한림읍 산록남로 53,1088.0,4,한림읍,33.3459802899171,126.321867724832
한림공원,제주특별자치도 제주시 한림읍 한림로 300(협재리),945.0,4,한림읍,33.3902248567191,126.239691183153
비양도,제주특별자치도 제주시 한림읍 협재리,657.0,4,한림읍,33.3870124134431,126.245988070371
어승생,제주특별자치도 제주시 해안동 1100도로 555번지 (해안동 산220-12번지),257.0,4,해안동,33.4570006190886,126.458680781874
돔베낭골,제주특별자치도 서귀포시 호근동,81.0,4,호근동,33.2615116284173,126.532760043118
각시바우오름,제주특별자치도 서귀포시 호근동 2112,62.0,4,호근동,33.276757462252,126.526958677517
곤흘동(곤을동) 마을터,제주특별자치도 제주시 화북1동 4438,254.0,4,화북1동,33.5217669475539,126.557395611224
화북비석거리,제주특별자치도 제주시  화북1동 4008,44.0,4,화북1동,33.5212210778459,126.559989000223
별도연대,제주특별자치도 제주시 화북1동 1537,43.0,4,화북1동,33.5262998282849,126.568135044311
별도포구,제주특별자치도 제주시 화북1동 4269-12,35.0,4,화북1동,33.5250263073704,126.564933622735
삼사석,제주특별자치도 제주시 화북1동 1380-1,34.0,4,화북1동,33.5209736780911,126.573782866815
화북환해장성,제주특별자치도 제주시 화북동,37.0,4,화북동,33.5202191791981,126.565465645477
어린이교통공원,제주특별자치도 제주시 명림로 437 (봉개동 4.3 공원 맞은편),130.0,5,(봉개동,33.4514707449038,126.623315505216
도그앤캣,제주특별자치도 서귀포시 홍중로 119-2  601동 107호,40.0,5,601동,33.2631200520785,126.555208973226
제주하늘을날다(패러글라이딩),제주특별자치도 제주시 도남로17길 32 영산홍아파트 가동,219.0,5,가동,33.4911356491329,126.53143833943
서건도,제주특별자치도 서귀포시 강정동 산 1,204.0,5,강정동,33.230076674038,126.498485934147
산지천,제주특별자치도 제주시 건입동,195.0,5,건입동,33.5150321079833,126.531518045313
흑돼지거리,제주특별자치도 제주시 건입동,102.0,5,건입동,33.5150321079833,126.531518045313
비자림,제주특별자치도 제주시 구좌읍 비자숲길 55,9490.0,5,구좌읍,33.4910972819998,126.811461205688
만장굴,제주특별자치도 제주시 구좌읍 만장굴길 182,4886.0,5,구좌읍,33.5283774190136,126.771615754394
김녕해수욕장,제주특별자치도 제주시 구좌읍 구좌해안로 237,1798.0,5,구좌읍,33.5572081367731,126.736551213927
다랑쉬오름(월랑봉),제주특별자치도 제주시 구좌읍 세화리 2705,1398.0,5,구좌읍,33.4750169662769,126.826518297601
월정리해변,제주특별자치도 제주시 구좌읍 월정리 33-3,1398.0,5,구좌읍,33.555112541169,126.798640676717
물영아리오름,제주특별자치도 서귀포시 남원읍 남조로 988-11,1050.0,5,남원읍,33.3612712046496,126.692962246783
휴애리 자연생활공원,"제주특별자치도 서귀포시 남원읍 신례동로 256 (신례리, 휴애리)",1000.0,5,남원읍,33.3085347525753,126.634380832055
머체왓숲길,제주특별자치도 서귀포시 남원읍 서성로 755,483.0,5,남원읍,33.3305225860707,126.673899820322
남원큰엉해변,제주특별자치도 서귀포시 남원읍 태위로 522-17,406.0,5,남원읍,33.2733498193692,126.703711977934
제주올레 5코스,제주특별자치도 서귀포시 남원읍 남태해안로 140,343.0,5,남원읍,33.2778173019586,126.719604623129
신비의도로카트체험장,제주특별자치도 제주시 노형동 187-3,81.0,5,노형동,33.4622212079716,126.484854697615
제주시 충혼묘지 4·3추모비(박진경 추도비),제주특별자치도 제주시 노형동 산 19-2,81.0,5,노형동,33.4117938658122,126.491828714548
가파도,제주특별자치도 서귀포시 대정읍 가파리,1946.0,5,대정읍,33.1697319370923,126.271293664433
송악산,제주특별자치도 서귀포시 대정읍 송악관광로 421-1,1134.0,5,대정읍,33.2077669201535,126.290887906913
케이제주씨워킹,제주특별자치도 서귀포시 대정읍 최남단해안로 120,599.0,5,대정읍,33.2100650813269,126.258379774648
마라도(마라해양도립공원),제주특별자치도 서귀포시 대정읍 마라로101번길 46,519.0,5,대정읍,33.1186178022129,126.267092741572
제주곶자왈도립공원,제주특별자치도 서귀포시 대정읍 에듀시티로 178,464.0,5,대정읍,33.2832221526695,126.273571694591
도두동 무지개 해안도로,제주특별자치도 제주시 도두1동,822.0,5,도두1동,33.5010079784134,126.474247107518
제주올레 17코스,제주특별자치도 제주시 도두1동 2612-1,406.0,5,도두1동,33.50524279514,126.468217854413
도두해안도로,제주특별자치도 제주시 도두2동 706-3,48.0,5,도두2동,33.510401625438,126.482338576502
도두봉,제주특별자치도 제주시 도두동 산 1,511.0,5,도두동,33.5085344192839,126.469041395771
범섬,제주특별자치도 서귀포시 법환동,339.0,5,법환동,33.2431480688709,126.514144783946
제주올레 6코스,제주특별자치도 서귀포시 보목동 1377-4,297.0,5,보목동,33.2371501897263,126.596001249754
제지기오름,제주특별자치도 서귀포시 보목동 275-1,127.0,5,보목동,33.24177090588,126.610078628977
개오리오름,제주특별자치도 제주시 봉개동,49.0,5,봉개동,33.4917232670658,126.594687244154
"안세미 (명도오름,明道岳)",제주특별자치도 제주시 봉개동 산2,44.0,5,봉개동,33.468206886739,126.606102137369
아라리오뮤지엄탑동시네마,제주특별자치도 제주시 삼도2동 1261-8,102.0,5,삼도2동,33.517445248574,126.523396875442
제주올레 18코스,제주특별자치도 제주시 삼양1동 1131-2,231.0,5,삼양1동,33.5286552757978,126.596319573991
삼양 셋다리물,제주특별자치도 제주시 삼양1동 1938-9,60.0,5,삼양1동,33.5289556528478,126.589153338424
삼양해안도로,제주특별자치도 제주시 삼양2동,49.0,5,삼양2동,33.5228672016569,126.584664643949
삼양해수욕장,제주특별자치도 제주시 삼양동,360.0,5,삼양동,33.521885794087,126.585599365994
서귀다원,제주특별자치도 서귀포시 상효동 산 118,470.0,5,상효동,0.0,0.0
1100고지습지,제주특별자치도 서귀포시 색달동 산 1-2,426.0,5,색달동,33.3575245371214,126.462896523457
별내린전망대,제주특별자치도 서귀포시 색달동 2938-1,113.0,5,색달동,33.2474860429014,126.416836511421
천지연기정길,제주특별자치도서귀포시 서귀동 961-33,61.0,5,서귀동,33.2471973965458,126.554863002553
솔동산8경,제주특별자치도 서귀포시 서귀동 솔동산로,56.0,5,서귀동,0.0,0.0
제주올레 7-1코스,제주특별자치도 서귀포시 서호동 553-1,117.0,5,서호동,33.2678472135273,126.520104904348
서귀포해안,제주특별자치도 서귀포시 서호동,60.0,5,서호동,33.2641864864094,126.517346819897
바람모루,제주특별자치도 서귀포시 서호동,50.0,5,서호동,33.2641864864094,126.517346819897
황우지해안,제주특별자치도 서귀포시 서홍동 766-1,1222.0,5,서홍동,33.2415695572508,126.549766357796
외돌개,제주특별자치도 서귀포시 서홍동 791,842.0,5,서홍동,33.240076867127,126.545663944153
제주올레 7코스,제주특별자치도 서귀포시 서홍동 795-1,815.0,5,서홍동,33.2405417950496,126.548102419629
새연교,제주특별자치도 서귀포시 서홍동 707-4,736.0,5,서홍동,33.2385316399892,126.558886662963
서귀포칠십리시공원,제주특별자치도 서귀포시 서홍동 576-9,281.0,5,서홍동,33.2460184148318,126.553476831206
성산초등학교 서청특별중대 주둔지,제주특별자치도 서귀포시 성산면 성산리 171-9,50.0,5,성산면,0.0,0.0
성산일출봉(UNESCO 세계자연유산),제주특별자치도 서귀포시 성산읍 일출로 284-12,10408.0,5,성산읍,33.462233758483,126.936800689963
섭지코지,제주특별자치도 서귀포시 성산읍 섭지코지로 107,4292.0,5,성산읍,33.4260423785235,126.926442688389
아쿠아플라넷 제주,제주특별자치도 서귀포시 성산읍 섭지코지로 95,1270.0,5,성산읍,33.4329768585971,126.927795526895
광치기해변,제주특별자치도 서귀포시 성산읍 섭지코지로 63,1142.0,5,성산읍,33.4370213964037,126.922403414639
제주올레 1코스,제주특별자치도 서귀포시 성산읍 오조리 396-1,731.0,5,성산읍,33.4719633582091,126.91490546392
산천단,제주특별자치도 제주시 아라1동 392-3,106.0,5,아라1동,33.4478193727017,126.552991048883
삼의악트레킹코스,제주특별자치도 제주시 아라동 산 24-2,117.0,5,아라동,33.4395285589061,126.561922654444
세미오름(삼의양오름),제주특별자치도 제주시 아라동 산 24-2,73.0,5,아라동,33.4395285589061,126.561922654444
용머리해안,제주특별자치도 서귀포시 안덕면 사계리,5140.0,5,안덕면,33.2316941376585,126.306514122101
산방산,제주특별자치도 서귀포시 안덕면 사계리 산 16,1924.0,5,안덕면,33.2423923919045,126.313950830111
카멜리아힐,제주 서귀포시 안덕면 병악로 166,1726.0,5,안덕면,33.290140185764,126.368365225196
오설록티뮤지엄,제주특별자치도 서귀포시 안덕면 신화역사로 15,1403.0,5,안덕면,33.3059240323368,126.289492214804
방주교회,제주특별자치도 서귀포시 안덕면 산록남로762번길 113,1082.0,5,안덕면,33.305124721628,126.387787906087
새별오름,제주특별자치도 제주시 애월읍 봉성리 산 59-8,3443.0,5,애월읍,33.3674086988003,126.355252824574
애월한담해안산책로,제주특별자치도 제주시 애월읍 곽지리 1359,2242.0,5,애월읍,33.4590846763959,126.310575628004
곽지해수욕장,제주특별자치도 제주시 애월읍 애월원당길 (곽지리),1437.0,5,애월읍,0.0,0.0
윗세오름(웃세오름),제주특별자치도 제주시 애월읍 광령리 산 183-1,1300.0,5,애월읍,33.3708702070152,126.477745019755
애월해안도로,제주특별자치도 제주시 애월읍 애월해안로,865.0,5,애월읍,0.0,0.0
제주컨트리클럽,제주특별자치도 제주시 영평동 2263-5,31.0,5,영평동,33.4303670043488,126.582307640104
오라동 청보리-메밀꽃밭,제주특별자치도 제주시 오라2동 산 76,889.0,5,오라2동,33.4271589152458,126.505783566255
민오름(오라동),제주특별자치도 제주시 오라2동 산 12,175.0,5,오라2동,33.4765241326101,126.506443018327
연대포구,제주특별자치도 제주시 외도2동,51.0,5,외도2동,33.4945540285904,126.433653396456
용연카누클럽,제주특별자치도 제주시 용담2동 438,55.0,5,용담2동,33.5156113803978,126.513990110664
용두암해안도로카페거리,제주특별자치도 제주시 용담3동,241.0,5,용담3동,33.5176026138478,126.492845368496
다끄네포구(용담포구),제주특별자치도 제주시 용담3동,92.0,5,용담3동,33.5176026138478,126.492845368496
우도(해양도립공원),제주특별자치도 제주시 우도면 삼양고수물길 1,8145.0,5,우도면,33.5194719510559,126.951016739939
우도산호해변 홍조단괴 서빈백사,제주특별자치도 제주시 우도면 우도해안길 252,496.0,5,우도면,33.5026665933324,126.94374024047
검멀레해변,제주특별자치도 제주시 우도면 우도해안길,388.0,5,우도면,0.0,0.0
우도 비양도,제주특별자치도 제주시 우도면 연평리,248.0,5,우도면,33.5059831398525,126.960256641493
우도올레보트,제주특별자치도 제주시 우도면 연평리 2562-1,203.0,5,우도면,0.0,0.0
이호털보네배낚시,제주특별자치도 제주시 이호1동 1787,72.0,5,이호1동,33.4971983959717,126.449357934605
현사포구,제주특별자치도 제주시 이호1동,43.0,5,이호1동,33.4993272538259,126.457478118712
사려니숲길,제주특별자치도 제주시 조천읍 교래리 산 137-1,9231.0,5,조천읍,33.4077032050543,126.644672355063
함덕해수욕장,제주특별자치도 제주시 조천읍 조함해안로 519-10,3685.0,5,조천읍,33.5437022656737,126.668709879591
거문오름(UNESCO 세계자연유산),제주특별자치도 제주시 조천읍 선교로 569-36,1489.0,5,조천읍,33.4569198735739,126.714752055141
에코랜드 테마파크,제주특별자치도 제주시 조천읍 번영로 1278-169,1256.0,5,조천읍,33.4553485144602,126.668852765522
산굼부리,제주특별자치도 제주시 조천읍 비자림로 768,1024.0,5,조천읍,33.4348735442325,126.688504038171
추자도,제주특별자치도 제주시 추자면 추자도,328.0,5,추자면,0.0,0.0
제주올레 18-1코스,제주특별자치도 제주시 추자면 묵리 산 133,170.0,5,추자면,33.9518718453954,126.307710882585
최영장군사당,제주특별자치도 제주시 추자면 대서3길 10,111.0,5,추자면,33.9643413785399,126.29629617008
모진이몽돌해변,제주특별자치도 제주시 추자면 신양리 56,108.0,5,추자면,33.9461033806051,126.333931047811
나바론절벽,제주특별자치도 제주시 추자면 영흥리 산 19,93.0,5,추자면,33.9564400554597,126.293961476379
백록담,제주특별자치도 서귀포시 토평동 산 15-1,1000.0,5,토평동,33.3469026219773,126.535454418798
보롬왓,제주특별자치도 서귀포시 표선면 번영로 2350-104,3058.0,5,표선면,33.4134956403949,126.752494805945
백약이오름,제주특별자치도 서귀포시 표선면 성읍리 산 1,944.0,5,표선면,33.4373134785332,126.791777669204
표선해수욕장,제주특별자치도 서귀포시 표선면 표선리,626.0,5,표선면,33.3265291020204,126.828739926647
성읍민속마을,제주특별자치도 서귀포시 표선면 성읍정의현로 19,616.0,5,표선면,33.3845106375498,126.800376745803
다이나믹메이즈,제주특별자치도 서귀포시 표선면 번영로 2644,578.0,5,표선면,33.3991114773805,126.784705796572
논짓물,제주특별자치도 서귀포시 하예동,649.0,5,하예동,33.2412109273802,126.378717518735
하예포구(예래포구),제주특별자치도 서귀포시 하예동,71.0,5,하예동,33.2412109273802,126.378717518735
열리해안길,제주특별자치도 서귀포시 하예동,45.0,5,하예동,33.2412109273802,126.378717518735
영실기암,제주특별자치도 서귀포시 하원동,119.0,5,하원동,33.2785360586219,126.4660226653
쇠소깍해변,제주특별자치도 서귀포시 하효동,223.0,5,하효동,33.2566103527058,126.618338420041
게우지코지,제주특별자치도 서귀포시 하효동,119.0,5,하효동,33.2566103527058,126.618338420041
수월봉 지질트레일,제주특별자치도 제주시 한경면 노을해안로 1013-70,2000.0,5,한경면,33.2942011923765,126.1629872247
수월봉,제주특별자치도 제주시 한경면 고산리 3760,1711.0,5,한경면,33.2947654332257,126.163419003191
신창풍차해안도로,제주특별자치도 제주시 한경면 신창리 1322-1,827.0,5,한경면,33.3434285042685,126.173908545785
환상숲 곶자왈공원,제주특별자치도 제주시 한경면 녹차분재로 594-1,643.0,5,한경면,33.3225720333875,126.263238052577
판포포구,제주특별자치도 제주시 한경면 판포리 2877-3,573.0,5,한경면,33.3654101549332,126.199622693529
협재해수욕장,제주특별자치도 제주시 한림읍 한림로 329-10,3942.0,5,한림읍,33.393748028429,126.239431893466
금능해수욕장,제주특별자치도 제주시 한림읍 금능길 119-10,1414.0,5,한림읍,33.3904006277236,126.236205125385
성이시돌목장,제주특별자치도 제주시 한림읍 산록남로 53,889.0,5,한림읍,33.3459802899171,126.321867724832
한림공원,제주특별자치도 제주시 한림읍 한림로 300(협재리),819.0,5,한림읍,33.3902248567191,126.239691183153
비양도,제주특별자치도 제주시 한림읍 협재리,744.0,5,한림읍,33.3870124134431,126.245988070371
어승생,제주특별자치도 제주시 해안동 1100도로 555번지 (해안동 산220-12번지),262.0,5,해안동,33.4570006190886,126.458680781874
돔베낭골,제주특별자치도 서귀포시 호근동,88.0,5,호근동,33.2615116284173,126.532760043118
각시바우오름,제주특별자치도 서귀포시 호근동 2112,47.0,5,호근동,33.276757462252,126.526958677517
곤흘동(곤을동) 마을터,제주특별자치도 제주시 화북1동 4438,132.0,5,화북1동,33.5217669475539,126.557395611224
별도연대,제주특별자치도 제주시 화북1동 1537,44.0,5,화북1동,33.5262998282849,126.568135044311
화북비석거리,제주특별자치도 제주시  화북1동 4008,39.0,5,화북1동,33.5212210778459,126.559989000223
별도포구,제주특별자치도 제주시 화북1동 4269-12,37.0,5,화북1동,33.5250263073704,126.564933622735
삼사석,제주특별자치도 제주시 화북1동 1380-1,35.0,5,화북1동,33.5209736780911,126.573782866815
화북환해장성,제주특별자치도 제주시 화북동,55.0,5,화북동,33.5202191791981,126.565465645477
어린이교통공원,제주특별자치도 제주시 명림로 437 (봉개동 4.3 공원 맞은편),114.0,6,(봉개동,33.4514707449038,126.623315505216
도그앤캣,제주특별자치도 서귀포시 홍중로 119-2  601동 107호,34.0,6,601동,33.2631200520785,126.555208973226
제주하늘을날다(패러글라이딩),제주특별자치도 제주시 도남로17길 32 영산홍아파트 가동,237.0,6,가동,33.4911356491329,126.53143833943
서건도,제주특별자치도 서귀포시 강정동 산 1,176.0,6,강정동,33.230076674038,126.498485934147
산지천,제주특별자치도 제주시 건입동,157.0,6,건입동,33.5150321079833,126.531518045313
흑돼지거리,제주특별자치도 제주시 건입동,86.0,6,건입동,33.5150321079833,126.531518045313
비자림,제주특별자치도 제주시 구좌읍 비자숲길 55,7738.0,6,구좌읍,33.4910972819998,126.811461205688
만장굴,제주특별자치도 제주시 구좌읍 만장굴길 182,4622.0,6,구좌읍,33.5283774190136,126.771615754394
김녕해수욕장,제주특별자치도 제주시 구좌읍 구좌해안로 237,1754.0,6,구좌읍,33.5572081367731,126.736551213927
월정리해변,제주특별자치도 제주시 구좌읍 월정리 33-3,1295.0,6,구좌읍,33.555112541169,126.798640676717
종달리수국길,제주특별자치도 제주시 구좌읍 해맞이해안로 2121,1194.0,6,구좌읍,0.0,0.0
휴애리 자연생활공원,"제주특별자치도 서귀포시 남원읍 신례동로 256 (신례리, 휴애리)",1024.0,6,남원읍,33.3085347525753,126.634380832055
물영아리오름,제주특별자치도 서귀포시 남원읍 남조로 988-11,896.0,6,남원읍,33.3612712046496,126.692962246783
머체왓숲길,제주특별자치도 서귀포시 남원읍 서성로 755,440.0,6,남원읍,33.3305225860707,126.673899820322
남원큰엉해변,제주특별자치도 서귀포시 남원읍 태위로 522-17,418.0,6,남원읍,33.2733498193692,126.703711977934
사라오름,제주특별자치도 서귀포시 남원읍 신례리 산 2-1,305.0,6,남원읍,33.3641266493346,126.605070169993
신비의도로카트체험장,제주특별자치도 제주시 노형동 187-3,76.0,6,노형동,33.4622212079716,126.484854697615
제주시 충혼묘지 4·3추모비(박진경 추도비),제주특별자치도 제주시 노형동 산 19-2,52.0,6,노형동,33.4117938658122,126.491828714548
가파도,제주특별자치도 서귀포시 대정읍 가파리,1371.0,6,대정읍,33.1697319370923,126.271293664433
송악산,제주특별자치도 서귀포시 대정읍 송악관광로 421-1,797.0,6,대정읍,33.2077669201535,126.290887906913
케이제주씨워킹,제주특별자치도 서귀포시 대정읍 최남단해안로 120,785.0,6,대정읍,33.2100650813269,126.258379774648
제주올레 10코스,제주특별자치도 서귀포시 대정읍 상모리 산 2-27,449.0,6,대정읍,33.2016817579066,126.287486518024
마라도(마라해양도립공원),제주특별자치도 서귀포시 대정읍 마라로101번길 46,419.0,6,대정읍,33.1186178022129,126.267092741572
도두동 무지개 해안도로,제주특별자치도 제주시 도두1동,1058.0,6,도두1동,33.5010079784134,126.474247107518
제주올레 17코스,제주특별자치도 제주시 도두1동 2612-1,265.0,6,도두1동,33.50524279514,126.468217854413
도두해안도로,제주특별자치도 제주시 도두2동 706-3,49.0,6,도두2동,33.510401625438,126.482338576502
도두봉,제주특별자치도 제주시 도두동 산 1,432.0,6,도두동,33.5085344192839,126.469041395771
범섬,제주특별자치도 서귀포시 법환동,340.0,6,법환동,33.2431480688709,126.514144783946
제주올레 6코스,제주특별자치도 서귀포시 보목동 1377-4,257.0,6,보목동,33.2371501897263,126.596001249754
제지기오름,제주특별자치도 서귀포시 보목동 275-1,93.0,6,보목동,33.24177090588,126.610078628977
개오리오름,제주특별자치도 제주시 봉개동,41.0,6,봉개동,33.4917232670658,126.594687244154
"안세미 (명도오름,明道岳)",제주특별자치도 제주시 봉개동 산2,31.0,6,봉개동,33.468206886739,126.606102137369
아라리오뮤지엄탑동시네마,제주특별자치도 제주시 삼도2동 1261-8,101.0,6,삼도2동,33.517445248574,126.523396875442
제주올레 18코스,제주특별자치도 제주시 삼양1동 1131-2,235.0,6,삼양1동,33.5286552757978,126.596319573991
삼양 셋다리물,제주특별자치도 제주시 삼양1동 1938-9,100.0,6,삼양1동,33.5289556528478,126.589153338424
삼양해안도로,제주특별자치도 제주시 삼양2동,51.0,6,삼양2동,33.5228672016569,126.584664643949
삼양해수욕장,제주특별자치도 제주시 삼양동,389.0,6,삼양동,33.521885794087,126.585599365994
서귀다원,제주특별자치도 서귀포시 상효동 산 118,288.0,6,상효동,0.0,0.0
1100고지습지,제주특별자치도 서귀포시 색달동 산 1-2,370.0,6,색달동,33.3575245371214,126.462896523457
별내린전망대,제주특별자치도 서귀포시 색달동 2938-1,111.0,6,색달동,33.2474860429014,126.416836511421
천지연기정길,제주특별자치도서귀포시 서귀동 961-33,62.0,6,서귀동,33.2471973965458,126.554863002553
솔동산8경,제주특별자치도 서귀포시 서귀동 솔동산로,50.0,6,서귀동,0.0,0.0
제주올레 7-1코스,제주특별자치도 서귀포시 서호동 553-1,121.0,6,서호동,33.2678472135273,126.520104904348
바람모루,제주특별자치도 서귀포시 서호동,46.0,6,서호동,33.2641864864094,126.517346819897
서귀포해안,제주특별자치도 서귀포시 서호동,42.0,6,서호동,33.2641864864094,126.517346819897
황우지해안,제주특별자치도 서귀포시 서홍동 766-1,1534.0,6,서홍동,33.2415695572508,126.549766357796
새연교,제주특별자치도 서귀포시 서홍동 707-4,708.0,6,서홍동,33.2385316399892,126.558886662963
외돌개,제주특별자치도 서귀포시 서홍동 791,630.0,6,서홍동,33.240076867127,126.545663944153
제주올레 7코스,제주특별자치도 서귀포시 서홍동 795-1,539.0,6,서홍동,33.2405417950496,126.548102419629
서귀포칠십리시공원,제주특별자치도 서귀포시 서홍동 576-9,234.0,6,서홍동,33.2460184148318,126.553476831206
성산초등학교 서청특별중대 주둔지,제주특별자치도 서귀포시 성산면 성산리 171-9,43.0,6,성산면,0.0,0.0
성산일출봉(UNESCO 세계자연유산),제주특별자치도 서귀포시 성산읍 일출로 284-12,7911.0,6,성산읍,33.462233758483,126.936800689963
섭지코지,제주 서귀포시 성산읍 고성리,2816.0,6,성산읍,33.4493165910551,126.90826946679
아쿠아플라넷 제주,제주특별자치도 서귀포시 성산읍 섭지코지로 95,1067.0,6,성산읍,33.4329768585971,126.927795526895
혼인지,제주특별자치도 서귀포시 성산읍 혼인지로 39-22,1042.0,6,성산읍,0.0,0.0
광치기해변,제주특별자치도 서귀포시 성산읍 섭지코지로 63,741.0,6,성산읍,33.4370213964037,126.922403414639
산천단,제주특별자치도 제주시 아라1동 392-3,138.0,6,아라1동,33.4478193727017,126.552991048883
삼의악트레킹코스,제주특별자치도 제주시 아라동 산 24-2,104.0,6,아라동,33.4395285589061,126.561922654444
세미오름(삼의양오름),제주특별자치도 제주시 아라동 산 24-2,58.0,6,아라동,33.4395285589061,126.561922654444
오설록티뮤지엄,제주특별자치도 서귀포시 안덕면 신화역사로 15,5961.0,6,안덕면,33.3059240323368,126.289492214804
용머리해안,제주특별자치도 서귀포시 안덕면 사계리 112-3,4102.0,6,안덕면,33.2334821266939,126.314630553022
산방산,제주특별자치도 서귀포시 안덕면 사계리 산 16,1656.0,6,안덕면,33.2423923919045,126.313950830111
카멜리아힐,제주 서귀포시 안덕면 병악로 166,1403.0,6,안덕면,33.290140185764,126.368365225196
방주교회,제주특별자치도 서귀포시 안덕면 산록남로762번길 113,974.0,6,안덕면,33.305124721628,126.387787906087
새별오름,제주특별자치도 제주시 애월읍 봉성리 산 59-8,2469.0,6,애월읍,33.3674086988003,126.355252824574
애월한담해안산책로,제주특별자치도 제주시 애월읍 곽지리 1359,1573.0,6,애월읍,33.4590846763959,126.310575628004
곽지해수욕장,제주특별자치도 제주시 애월읍 애월원당길 (곽지리),1454.0,6,애월읍,0.0,0.0
윗세오름(웃세오름),제주특별자치도 제주시 애월읍 광령리 산 183-1,767.0,6,애월읍,33.3708702070152,126.477745019755
애월해안도로,제주특별자치도 제주시 애월읍 애월해안로,705.0,6,애월읍,0.0,0.0
제주컨트리클럽,제주특별자치도 제주시 영평동 2263-5,32.0,6,영평동,33.4303670043488,126.582307640104
오라동 청보리-메밀꽃밭,제주특별자치도 제주시 오라2동 산 76,434.0,6,오라2동,33.4271589152458,126.505783566255
민오름(오라동),제주특별자치도 제주시 오라2동 산 12,128.0,6,오라2동,33.4765241326101,126.506443018327
연대포구,제주특별자치도 제주시 외도2동,40.0,6,외도2동,33.4945540285904,126.433653396456
용연카누클럽,제주특별자치도 제주시 용담2동 438,66.0,6,용담2동,33.5156113803978,126.513990110664
용두암해안도로카페거리,제주특별자치도 제주시 용담3동,251.0,6,용담3동,33.5176026138478,126.492845368496
다끄네포구(용담포구),제주특별자치도 제주시 용담3동,95.0,6,용담3동,33.5176026138478,126.492845368496
우도(해양도립공원),제주특별자치도 제주시 우도면 삼양고수물길 1,6603.0,6,우도면,33.5194719510559,126.951016739939
우도산호해변 홍조단괴 서빈백사,제주특별자치도 제주시 우도면 우도해안길 252,598.0,6,우도면,33.5026665933324,126.94374024047
검멀레해변,제주특별자치도 제주시 우도면 우도해안길,313.0,6,우도면,0.0,0.0
우도 비양도,제주특별자치도 제주시 우도면 연평리,200.0,6,우도면,33.5059831398525,126.960256641493
우도올레보트,제주특별자치도 제주시 우도면 연평리 2562-1,187.0,6,우도면,0.0,0.0
이호털보네배낚시,제주특별자치도 제주시 이호1동 1787,84.0,6,이호1동,33.4971983959717,126.449357934605
현사포구,제주특별자치도 제주시 이호1동,42.0,6,이호1동,33.4993272538259,126.457478118712
사려니숲길,제주특별자치도 제주시 조천읍 교래리 산 137-1,7859.0,6,조천읍,33.4077032050543,126.644672355063
함덕해수욕장,제주특별자치도 제주시 조천읍 조함해안로 525,4413.0,6,조천읍,33.5428267548889,126.670510321052
거문오름(UNESCO 세계자연유산),제주특별자치도 제주시 조천읍 선교로 569-36,1259.0,6,조천읍,33.4569198735739,126.714752055141
에코랜드 테마파크,제주특별자치도 제주시 조천읍 번영로 1278-169,999.0,6,조천읍,33.4553485144602,126.668852765522
산굼부리,제주특별자치도 제주시 조천읍 비자림로 768,754.0,6,조천읍,33.4348735442325,126.688504038171
추자도,제주특별자치도 제주시 추자면 추자도,217.0,6,추자면,0.0,0.0
제주올레 18-1코스,제주특별자치도 제주시 추자면 묵리 산 133,135.0,6,추자면,33.9518718453954,126.307710882585
모진이몽돌해변,제주특별자치도 제주시 추자면 신양리 56,119.0,6,추자면,33.9461033806051,126.333931047811
최영장군사당,제주특별자치도 제주시 추자면 대서3길 10,94.0,6,추자면,33.9643413785399,126.29629617008
나바론절벽,제주특별자치도 제주시 추자면 영흥리 산 19,85.0,6,추자면,33.9564400554597,126.293961476379
백록담,제주특별자치도 서귀포시 토평동 산 15-1,771.0,6,토평동,33.3469026219773,126.535454418798
보롬왓,제주특별자치도 서귀포시 표선면 번영로 2350-104,1275.0,6,표선면,33.4134956403949,126.752494805945
표선해수욕장,제주특별자치도 서귀포시 표선면 표선리,704.0,6,표선면,33.3265291020204,126.828739926647
백약이오름,제주특별자치도 서귀포시 표선면 성읍리 산 1,650.0,6,표선면,33.4373134785332,126.791777669204
성읍민속마을,제주특별자치도 서귀포시 표선면 성읍정의현로 19,586.0,6,표선면,33.3845106375498,126.800376745803
다이나믹메이즈,제주특별자치도 서귀포시 표선면 번영로 2644,462.0,6,표선면,33.3991114773805,126.784705796572
논짓물,제주특별자치도 서귀포시 하예동,2094.0,6,하예동,33.2412109273802,126.378717518735
열리해안길,제주특별자치도 서귀포시 하예동,70.0,6,하예동,33.2412109273802,126.378717518735
하예포구(예래포구),제주특별자치도 서귀포시 하예동,62.0,6,하예동,33.2412109273802,126.378717518735
영실기암,제주특별자치도 서귀포시 하원동,74.0,6,하원동,33.2785360586219,126.4660226653
쇠소깍해변,제주특별자치도 서귀포시 하효동,217.0,6,하효동,33.2566103527058,126.618338420041
게우지코지,제주특별자치도 서귀포시 하효동,94.0,6,하효동,33.2566103527058,126.618338420041
수월봉 지질트레일,제주특별자치도 제주시 한경면 노을해안로 1013-70,1377.0,6,한경면,33.2942011923765,126.1629872247
수월봉,제주특별자치도 제주시 한경면 고산리 3760,1033.0,6,한경면,33.2947654332257,126.163419003191
판포포구,제주특별자치도 제주시 한경면 판포리 2877-3,784.0,6,한경면,33.3654101549332,126.199622693529
신창풍차해안도로,제주특별자치도 제주시 한경면 신창리 1322-1,568.0,6,한경면,33.3434285042685,126.173908545785
환상숲 곶자왈공원,제주특별자치도 제주시 한경면 녹차분재로 594-1,527.0,6,한경면,33.3225720333875,126.263238052577
협재해수욕장,제주특별자치도 제주시 한림읍 한림로 329-10,4290.0,6,한림읍,33.393748028429,126.239431893466
금능해수욕장,제주특별자치도 제주시 한림읍 금능길 119-10,1808.0,6,한림읍,33.3904006277236,126.236205125385
성이시돌목장,제주특별자치도 제주시 한림읍 산록남로 53,918.0,6,한림읍,33.3459802899171,126.321867724832
한림공원,제주특별자치도 제주시 한림읍 한림로 300(협재리),677.0,6,한림읍,33.3902248567191,126.239691183153
비양도,제주특별자치도 제주시 한림읍 협재리,567.0,6,한림읍,33.3870124134431,126.245988070371
어승생,제주특별자치도 제주시 해안동 1100도로 555번지 (해안동 산220-12번지),205.0,6,해안동,33.4570006190886,126.458680781874
돔베낭골,제주특별자치도 서귀포시 호근동,67.0,6,호근동,33.2615116284173,126.532760043118
각시바우오름,제주특별자치도 서귀포시 호근동 2112,41.0,6,호근동,33.276757462252,126.526958677517
곤흘동(곤을동) 마을터,제주특별자치도 제주시 화북1동 4438,116.0,6,화북1동,33.5217669475539,126.557395611224
별도포구,제주특별자치도 제주시 화북1동 4269-12,39.0,6,화북1동,33.5250263073704,126.564933622735
화북비석거리,제주특별자치도 제주시  화북1동 4008,34.0,6,화북1동,33.5212210778459,126.559989000223
별도연대,제주특별자치도 제주시 화북1동 1537,26.0,6,화북1동,33.5262998282849,126.568135044311
삼사석,제주특별자치도 제주시 화북1동 1380-1,22.0,6,화북1동,33.5209736780911,126.573782866815
화북환해장성,제주특별자치도 제주시 화북동,32.0,6,화북동,33.5202191791981,126.565465645477
귤밭76번지,제주특별자치도  제주시 화북이동 5495-2,124.0,6,화북이동,33.4932106218954,126.556236333795
어린이교통공원,제주특별자치도 제주시 명림로 437 (봉개동 4.3 공원 맞은편),156.0,7,(봉개동,33.4514707449038,126.623315505216
도그앤캣,제주특별자치도 서귀포시 홍중로 119-2  601동 107호,28.0,7,601동,33.2631200520785,126.555208973226
제주하늘을날다(패러글라이딩),제주특별자치도 제주시 도남로17길 32 영산홍아파트 가동,204.0,7,가동,33.4911356491329,126.53143833943
서건도,제주특별자치도 서귀포시 강정동 산 1,144.0,7,강정동,33.230076674038,126.498485934147
산지천,제주특별자치도 제주시 건입동,184.0,7,건입동,33.5150321079833,126.531518045313
흑돼지거리,제주특별자치도 제주시 건입동,51.0,7,건입동,33.5150321079833,126.531518045313
비자림,제주특별자치도 제주시 구좌읍 비자숲길 55,6198.0,7,구좌읍,33.4910972819998,126.811461205688
만장굴,제주특별자치도 제주시 구좌읍 만장굴길 182,2701.0,7,구좌읍,33.5283774190136,126.771615754394
김녕해수욕장,제주특별자치도 제주시 구좌읍 구좌해안로 237,1813.0,7,구좌읍,33.5572081367731,126.736551213927
월정리해변,제주특별자치도 제주시 구좌읍 월정리 33-3,1475.0,7,구좌읍,33.555112541169,126.798640676717
세화해변,제주특별자치도 제주시 구좌읍 해녀박물관길 27,1173.0,7,구좌읍,33.5233717133389,126.862239713197
물영아리오름,제주특별자치도 서귀포시 남원읍 남조로 988-11,578.0,7,남원읍,33.3612712046496,126.692962246783
휴애리 자연생활공원,"제주특별자치도 서귀포시 남원읍 신례동로 256 (신례리, 휴애리)",518.0,7,남원읍,33.3085347525753,126.634380832055
남원큰엉해변,제주특별자치도 서귀포시 남원읍 태위로 522-17,413.0,7,남원읍,33.2733498193692,126.703711977934
머체왓숲길,제주특별자치도 서귀포시 남원읍 서성로 755,289.0,7,남원읍,33.3305225860707,126.673899820322
사라오름,제주특별자치도 서귀포시 남원읍 신례리 산 2-1,235.0,7,남원읍,33.3641266493346,126.605070169993
제주시 충혼묘지 4·3추모비(박진경 추도비),제주특별자치도 제주시 노형동 산 19-2,67.0,7,노형동,33.4117938658122,126.491828714548
신비의도로카트체험장,제주특별자치도 제주시 노형동 187-3,48.0,7,노형동,33.4622212079716,126.484854697615
케이제주씨워킹,제주특별자치도 서귀포시 대정읍 최남단해안로 120,1118.0,7,대정읍,33.2100650813269,126.258379774648
가파도,제주특별자치도 서귀포시 대정읍 가파리,684.0,7,대정읍,33.1697319370923,126.271293664433
송악산,제주특별자치도 서귀포시 대정읍 송악관광로 421-1,461.0,7,대정읍,33.2077669201535,126.290887906913
송악산둘레길,제주특별자치도 서귀포시 대정읍 송악관광로 421-1,454.0,7,대정읍,33.2077669201535,126.290887906913
마라도(마라해양도립공원),제주특별자치도 서귀포시 대정읍 마라로101번길 46,387.0,7,대정읍,33.1186178022129,126.267092741572
도두동 무지개 해안도로,제주특별자치도 제주시 도두1동,552.0,7,도두1동,33.5010079784134,126.474247107518
제주올레 17코스,제주특별자치도 제주시 도두1동 2612-1,145.0,7,도두1동,33.50524279514,126.468217854413
도두해안도로,제주특별자치도 제주시 도두2동 706-3,31.0,7,도두2동,33.510401625438,126.482338576502
도두봉,제주특별자치도 제주시 도두동 산 1,465.0,7,도두동,33.5085344192839,126.469041395771
범섬,제주특별자치도 서귀포시 법환동,287.0,7,법환동,33.2431480688709,126.514144783946
제주올레 6코스,제주특별자치도 서귀포시 보목동 1377-4,169.0,7,보목동,33.2371501897263,126.596001249754
제지기오름,제주특별자치도 서귀포시 보목동 275-1,64.0,7,보목동,33.24177090588,126.610078628977
개오리오름,제주특별자치도 제주시 봉개동,37.0,7,봉개동,33.4917232670658,126.594687244154
"안세미 (명도오름,明道岳)",제주특별자치도 제주시 봉개동 산2,23.0,7,봉개동,33.468206886739,126.606102137369
아라리오뮤지엄탑동시네마,제주특별자치도 제주시 삼도2동 1261-8,101.0,7,삼도2동,33.517445248574,126.523396875442
삼양 셋다리물,제주특별자치도 제주시 삼양1동 1938-9,187.0,7,삼양1동,33.5289556528478,126.589153338424
제주올레 18코스,제주특별자치도 제주시 삼양1동 1131-2,156.0,7,삼양1동,33.5286552757978,126.596319573991
삼양해안도로,제주특별자치도 제주시 삼양2동,52.0,7,삼양2동,33.5228672016569,126.584664643949
삼양해수욕장,제주특별자치도 제주시 삼양동,423.0,7,삼양동,33.521885794087,126.585599365994
1100고지습지,제주특별자치도 서귀포시 색달동 산 1-2,386.0,7,색달동,33.3575245371214,126.462896523457
별내린전망대,제주특별자치도 서귀포시 색달동 2938-1,82.0,7,색달동,33.2474860429014,126.416836511421
천지연기정길,제주특별자치도서귀포시 서귀동 961-33,48.0,7,서귀동,33.2471973965458,126.554863002553
솔동산8경,제주특별자치도 서귀포시 서귀동 솔동산로,38.0,7,서귀동,0.0,0.0
제주올레 7-1코스,제주특별자치도 서귀포시 서호동 553-1,65.0,7,서호동,33.2678472135273,126.520104904348
서귀포해안,제주특별자치도 서귀포시 서호동,40.0,7,서호동,33.2641864864094,126.517346819897
바람모루,제주특별자치도 서귀포시 서호동,38.0,7,서호동,33.2641864864094,126.517346819897
황우지해안,제주특별자치도 서귀포시 서홍동 766-1,2174.0,7,서홍동,33.2415695572508,126.549766357796
외돌개,제주특별자치도 서귀포시 서홍동 791,620.0,7,서홍동,33.240076867127,126.545663944153
새연교,제주특별자치도 서귀포시 서홍동 707-4,590.0,7,서홍동,33.2385316399892,126.558886662963
제주올레 7코스,제주특별자치도 서귀포시 서홍동 795-1,358.0,7,서홍동,33.2405417950496,126.548102419629
서귀포칠십리시공원,제주특별자치도 서귀포시 서홍동 576-9,190.0,7,서홍동,33.2460184148318,126.553476831206
성산초등학교 서청특별중대 주둔지,제주특별자치도 서귀포시 성산면 성산리 171-9,50.0,7,성산면,0.0,0.0
성산일출봉(UNESCO 세계자연유산),제주특별자치도 서귀포시 성산읍 일출로 284-12,5691.0,7,성산읍,33.462233758483,126.936800689963
섭지코지,제주 서귀포시 성산읍 고성리,1451.0,7,성산읍,33.4493165910551,126.90826946679
아쿠아플라넷 제주,제주특별자치도 서귀포시 성산읍 섭지코지로 95,1022.0,7,성산읍,33.4329768585971,126.927795526895
광치기해변,제주특별자치도 서귀포시 성산읍 섭지코지로 63,499.0,7,성산읍,33.4370213964037,126.922403414639
제주베니스랜드,제주특별자치도 서귀포시 성산읍 난산리 2575,405.0,7,성산읍,0.0,0.0
삼의악트레킹코스,제주특별자치도 제주시 아라동 산 24-2,89.0,7,아라동,33.4395285589061,126.561922654444
세미오름(삼의양오름),제주특별자치도 제주시 아라동 산 24-2,38.0,7,아라동,33.4395285589061,126.561922654444
산천단,제주특별자치도 제주시 아라일동 375-4,64.0,7,아라일동,33.447338490736,126.554377685968
오설록티뮤지엄,제주특별자치도 서귀포시 안덕면 신화역사로 15,6504.0,7,안덕면,33.3059240323368,126.289492214804
용머리해안,제주특별자치도 서귀포시 안덕면 사계리 112-3,2456.0,7,안덕면,33.2334821266939,126.314630553022
화순금모래해수욕장담수수영장,제주특별자치도 서귀포시 안덕면 화순리 776-8,1524.0,7,안덕면,33.2396158073822,126.335648464354
카멜리아힐,제주 서귀포시 안덕면 병악로 166,1164.0,7,안덕면,33.290140185764,126.368365225196
이니스프리제주하우스,제주특별자치도 서귀포시 안덕면 신화역사로 23,1131.0,7,안덕면,33.3066749563549,126.290892953867
곽지해수욕장,제주특별자치도 제주시 애월읍 애월원당길 (곽지리),1834.0,7,애월읍,0.0,0.0
새별오름,제주특별자치도 제주시 애월읍 봉성리 산 59-8,1619.0,7,애월읍,33.3674086988003,126.355252824574
애월한담해안산책로,제주특별자치도 제주시 애월읍 곽지리 1359,1139.0,7,애월읍,33.4590846763959,126.310575628004
9.81 파크,제주특별자치도 제주시 애월읍 천덕로 880-24,677.0,7,애월읍,33.3901019408173,126.366630862509
애월해안도로,제주특별자치도 제주시 애월읍 애월해안로,565.0,7,애월읍,0.0,0.0
제주컨트리클럽,제주특별자치도 제주시 영평동 2263-5,16.0,7,영평동,33.4303670043488,126.582307640104
오라동 청보리-메밀꽃밭,제주특별자치도 제주시 오라2동 산 76,216.0,7,오라2동,33.4271589152458,126.505783566255
민오름(오라동),제주특별자치도 제주시 오라2동 산 12,122.0,7,오라2동,33.4765241326101,126.506443018327
연대포구,제주특별자치도 제주시 외도2동,37.0,7,외도2동,33.4945540285904,126.433653396456
용두암해안도로카페거리,제주특별자치도 제주시 용담3동,189.0,7,용담3동,33.5176026138478,126.492845368496
다끄네포구(용담포구),제주특별자치도 제주시 용담3동,128.0,7,용담3동,33.5176026138478,126.492845368496
우도(해양도립공원),제주특별자치도 제주시 우도면 삼양고수물길 1,6426.0,7,우도면,33.5194719510559,126.951016739939
우도산호해변 홍조단괴 서빈백사,제주특별자치도 제주시 우도면 우도해안길 252,382.0,7,우도면,33.5026665933324,126.94374024047
검멀레해변,제주특별자치도 제주시 우도면 우도해안길,242.0,7,우도면,0.0,0.0
우도올레보트,제주특별자치도 제주시 우도면 연평리 2615-2,197.0,7,우도면,0.0,0.0
우도 비양도,제주특별자치도 제주시 우도면 연평리,147.0,7,우도면,33.5059831398525,126.960256641493
이호털보네배낚시,제주특별자치도 제주시 이호1동 1787,96.0,7,이호1동,33.4971983959717,126.449357934605
현사포구,제주특별자치도 제주시 이호1동,41.0,7,이호1동,33.4993272538259,126.457478118712
사려니숲길,제주특별자치도 제주시 조천읍 교래리 산 137-1,5607.0,7,조천읍,33.4077032050543,126.644672355063
함덕해수욕장,제주특별자치도 제주시 조천읍 조함해안로 525,3437.0,7,조천읍,33.5428267548889,126.670510321052
에코랜드 테마파크,제주특별자치도 제주시 조천읍 번영로 1278-169,876.0,7,조천읍,33.4553485144602,126.668852765522
거문오름(UNESCO 세계자연유산),제주특별자치도 제주시 조천읍 선교로 569-36,819.0,7,조천읍,33.4569198735739,126.714752055141
산굼부리,제주특별자치도 제주시 조천읍 비자림로 768,660.0,7,조천읍,33.4348735442325,126.688504038171
추자도,제주특별자치도 제주시 추자면 추자도,229.0,7,추자면,0.0,0.0
모진이몽돌해변,제주특별자치도 제주시 추자면 신양리 56,104.0,7,추자면,33.9461033806051,126.333931047811
제주올레 18-1코스,제주특별자치도 제주시 추자면 묵리 산 133,65.0,7,추자면,33.9518718453954,126.307710882585
최영장군사당,제주특별자치도 제주시 추자면 대서3길 10,59.0,7,추자면,33.9643413785399,126.29629617008
신양항(하추자항),제주특별자치도 제주시 추자면 신양리,42.0,7,추자면,33.9472060303152,126.33140418471
백록담,제주특별자치도 서귀포시 토평동 산 15-1,862.0,7,토평동,33.3469026219773,126.535454418798
보롬왓,제주특별자치도 서귀포시 표선면 번영로 2350-104,828.0,7,표선면,33.4134956403949,126.752494805945
표선해수욕장,제주특별자치도 서귀포시 표선면 표선리,610.0,7,표선면,33.3265291020204,126.828739926647
다이나믹메이즈,제주특별자치도 서귀포시 표선면 번영로 2644,585.0,7,표선면,33.3991114773805,126.784705796572
성읍민속마을,제주특별자치도 서귀포시 표선면 성읍정의현로 19,446.0,7,표선면,33.3845106375498,126.800376745803
백약이오름,제주특별자치도 서귀포시 표선면 성읍리 산 1,402.0,7,표선면,33.4373134785332,126.791777669204
논짓물,제주특별자치도 서귀포시 하예동,1069.0,7,하예동,33.2412109273802,126.378717518735
하예포구(예래포구),제주특별자치도 서귀포시 하예동,51.0,7,하예동,33.2412109273802,126.378717518735
열리해안길,제주특별자치도 서귀포시 하예동,36.0,7,하예동,33.2412109273802,126.378717518735
영실기암,제주특별자치도 서귀포시 하원동,53.0,7,하원동,33.2785360586219,126.4660226653
쇠소깍해변,제주특별자치도 서귀포시 하효동,226.0,7,하효동,33.2566103527058,126.618338420041
게우지코지,제주특별자치도 서귀포시 하효동,76.0,7,하효동,33.2566103527058,126.618338420041
수월봉 지질트레일,제주특별자치도 제주시 한경면 노을해안로 1013-70,1113.0,7,한경면,33.2942011923765,126.1629872247
판포포구,제주특별자치도 제주시 한경면 판포리 2877-3,923.0,7,한경면,33.3654101549332,126.199622693529
신창풍차해안도로,제주특별자치도 제주시 한경면 신창리 1322-1,619.0,7,한경면,33.3434285042685,126.173908545785
수월봉,제주특별자치도 제주시 한경면 고산리 3760,589.0,7,한경면,33.2947654332257,126.163419003191
환상숲 곶자왈공원,제주특별자치도 제주시 한경면 녹차분재로 594-1,473.0,7,한경면,33.3225720333875,126.263238052577
협재해수욕장,제주특별자치도 제주시 한림읍 한림로 329-10,3947.0,7,한림읍,33.393748028429,126.239431893466
금능해수욕장,제주특별자치도 제주시 한림읍 금능길 119-10,2158.0,7,한림읍,33.3904006277236,126.236205125385
성이시돌목장,제주특별자치도 제주시 한림읍 산록남로 53,719.0,7,한림읍,33.3459802899171,126.321867724832
한림공원,제주특별자치도 제주시 한림읍 한림로 300(협재리),571.0,7,한림읍,33.3902248567191,126.239691183153
비양도,제주특별자치도 제주시 한림읍 협재리,528.0,7,한림읍,33.3870124134431,126.245988070371
어승생,제주특별자치도 제주시 해안동 1100도로 555번지 (해안동 산220-12번지),244.0,7,해안동,33.4570006190886,126.458680781874
돔베낭골,제주특별자치도 서귀포시 호근동,51.0,7,호근동,33.2615116284173,126.532760043118
각시바우오름,제주특별자치도 서귀포시 호근동 2112,29.0,7,호근동,33.276757462252,126.526958677517
곤흘동(곤을동) 마을터,제주특별자치도 제주시 화북1동 4438,117.0,7,화북1동,33.5217669475539,126.557395611224
화북비석거리,제주특별자치도 제주시  화북1동 4008,44.0,7,화북1동,33.5212210778459,126.559989000223
별도연대,제주특별자치도 제주시 화북1동 1537,30.0,7,화북1동,33.5262998282849,126.568135044311
별도포구,제주특별자치도 제주시 화북1동 4269-12,26.0,7,화북1동,33.5250263073704,126.564933622735
삼사석,제주특별자치도 제주시 화북1동 1380-1,22.0,7,화북1동,33.5209736780911,126.573782866815
화북환해장성,제주특별자치도 제주시 화북동,34.0,7,화북동,33.5202191791981,126.565465645477
귤밭76번지,제주특별자치도  제주시 화북이동 5495-2,96.0,7,화북이동,33.4932106218954,126.556236333795
어린이교통공원,제주특별자치도 제주시 명림로 437 (봉개동 4.3 공원 맞은편),362.0,8,(봉개동,33.4514707449038,126.623315505216
도그앤캣,제주특별자치도 서귀포시 홍중로 119-2  601동 107호,30.0,8,601동,33.2631200520785,126.555208973226
제주하늘을날다(패러글라이딩),제주특별자치도 제주시 도남로17길 32 영산홍아파트 가동,165.0,8,가동,33.4911356491329,126.53143833943
서건도,제주특별자치도 서귀포시 강정동 산 1,116.0,8,강정동,33.230076674038,126.498485934147
산지천,제주특별자치도 제주시 건입동,218.0,8,건입동,33.5150321079833,126.531518045313
흑돼지거리,제주특별자치도 제주시 건입동,43.0,8,건입동,33.5150321079833,126.531518045313
비자림,제주특별자치도 제주시 구좌읍 비자숲길 55,6989.0,8,구좌읍,33.4910972819998,126.811461205688
만장굴,제주특별자치도 제주시 구좌읍 만장굴길 182,3320.0,8,구좌읍,33.5283774190136,126.771615754394
김녕해수욕장,제주특별자치도 제주시 구좌읍 구좌해안로 237,2152.0,8,구좌읍,33.5572081367731,126.736551213927
월정리해변,제주특별자치도 제주시 구좌읍 월정리 33-3,1955.0,8,구좌읍,33.555112541169,126.798640676717
세화해변,제주특별자치도 제주시 구좌읍 해녀박물관길 27,865.0,8,구좌읍,33.5233717133389,126.862239713197
휴애리 자연생활공원,"제주특별자치도 서귀포시 남원읍 신례동로 256 (신례리, 휴애리)",656.0,8,남원읍,33.3085347525753,126.634380832055
물영아리오름,제주특별자치도 서귀포시 남원읍 남조로 988-11,482.0,8,남원읍,33.3612712046496,126.692962246783
남원큰엉해변,제주특별자치도 서귀포시 남원읍 태위로 522-17,367.0,8,남원읍,33.2733498193692,126.703711977934
머체왓숲길,제주특별자치도 서귀포시 남원읍 서성로 755,310.0,8,남원읍,33.3305225860707,126.673899820322
제주동백수목원,제주특별자치도 서귀포시 남원읍 위미중앙로300번길 15,286.0,8,남원읍,33.2727234850834,126.675138292326
제주시 충혼묘지 4·3추모비(박진경 추도비),제주특별자치도 제주시 노형동 산 19-2,33.0,8,노형동,33.4117938658122,126.491828714548
송악산둘레길,제주특별자치도 서귀포시 대정읍 송악관광로 421-1,1804.0,8,대정읍,33.2077669201535,126.290887906913
케이제주씨워킹,제주특별자치도 서귀포시 대정읍 최남단해안로 120,904.0,8,대정읍,33.2100650813269,126.258379774648
마라도(마라해양도립공원),제주특별자치도 서귀포시 대정읍 마라로101번길 46,569.0,8,대정읍,33.1186178022129,126.267092741572
가파도,제주특별자치도 서귀포시 대정읍 가파리,502.0,8,대정읍,33.1697319370923,126.271293664433
송악산,제주특별자치도 서귀포시 대정읍 송악관광로 421-1,484.0,8,대정읍,33.2077669201535,126.290887906913
도두동 무지개 해안도로,제주특별자치도 제주시 도두1동,601.0,8,도두1동,33.5010079784134,126.474247107518
제주올레 17코스,제주특별자치도 제주시 도두1동 2612-1,256.0,8,도두1동,33.50524279514,126.468217854413
도두해안도로,제주특별자치도 제주시 도두2동 706-3,28.0,8,도두2동,33.510401625438,126.482338576502
도두봉,제주특별자치도 제주시 도두동 산 1,477.0,8,도두동,33.5085344192839,126.469041395771
범섬,제주특별자치도 서귀포시 법환동,403.0,8,법환동,33.2431480688709,126.514144783946
제주올레 6코스,제주특별자치도 서귀포시 보목동 1377-4,221.0,8,보목동,33.2371501897263,126.596001249754
제지기오름,제주특별자치도 서귀포시 보목동 275-1,51.0,8,보목동,33.24177090588,126.610078628977
개오리오름,제주특별자치도 제주시 봉개동,24.0,8,봉개동,33.4917232670658,126.594687244154
"안세미 (명도오름,明道岳)",제주특별자치도 제주시 봉개동 산2,13.0,8,봉개동,33.468206886739,126.606102137369
아라리오뮤지엄탑동시네마,제주특별자치도 제주시 삼도2동 1261-8,71.0,8,삼도2동,33.517445248574,126.523396875442
제주올레 18코스,제주특별자치도 제주시 삼양1동 1131-2,229.0,8,삼양1동,33.5286552757978,126.596319573991
삼양 셋다리물,제주특별자치도 제주시 삼양1동 1938-9,170.0,8,삼양1동,33.5289556528478,126.589153338424
삼양해안도로,제주특별자치도 제주시 삼양2동,27.0,8,삼양2동,33.5228672016569,126.584664643949
삼양해수욕장,제주특별자치도 제주시 삼양동,377.0,8,삼양동,33.521885794087,126.585599365994
1100고지습지,제주특별자치도 서귀포시 색달동 산 1-2,431.0,8,색달동,33.3575245371214,126.462896523457
별내린전망대,제주특별자치도 서귀포시 색달동 2938-1,79.0,8,색달동,33.2474860429014,126.416836511421
천지연기정길,제주특별자치도서귀포시 서귀동 961-33,39.0,8,서귀동,33.2471973965458,126.554863002553
솔동산8경,제주특별자치도 서귀포시 서귀동 솔동산로,36.0,8,서귀동,0.0,0.0
제주올레 7-1코스,제주특별자치도 서귀포시 서호동 553-1,65.0,8,서호동,33.2678472135273,126.520104904348
바람모루,제주특별자치도 서귀포시 서호동,37.0,8,서호동,33.2641864864094,126.517346819897
서귀포해안,제주특별자치도 서귀포시 서호동,30.0,8,서호동,33.2641864864094,126.517346819897
황우지해안,제주특별자치도 서귀포시 서홍동 766-1,1727.0,8,서홍동,33.2415695572508,126.549766357796
외돌개,제주특별자치도 서귀포시 서홍동 791,736.0,8,서홍동,33.240076867127,126.545663944153
제주올레 7코스,제주특별자치도 서귀포시 서홍동 795-1,604.0,8,서홍동,33.2405417950496,126.548102419629
새연교,제주특별자치도 서귀포시 서홍동 707-4,598.0,8,서홍동,33.2385316399892,126.558886662963
서귀포칠십리시공원,제주특별자치도 서귀포시 서홍동 576-9,189.0,8,서홍동,33.2460184148318,126.553476831206
성산초등학교 서청특별중대 주둔지,제주특별자치도 서귀포시 성산면 성산리 171-9,31.0,8,성산면,0.0,0.0
성산일출봉(UNESCO 세계자연유산),제주특별자치도 서귀포시 성산읍 일출로 284-12,6495.0,8,성산읍,33.462233758483,126.936800689963
섭지코지,제주 서귀포시 성산읍 고성리,2386.0,8,성산읍,33.4493165910551,126.90826946679
아쿠아플라넷 제주,제주특별자치도 서귀포시 성산읍 섭지코지로 95,1441.0,8,성산읍,33.4329768585971,126.927795526895
광치기해변,제주특별자치도 서귀포시 성산읍 섭지코지로 63,727.0,8,성산읍,33.4370213964037,126.922403414639
제주올레 1코스,제주특별자치도 서귀포시 성산읍 오조리 396-1,543.0,8,성산읍,33.4719633582091,126.91490546392
삼의악트레킹코스,제주특별자치도 제주시 아라동 산 24-2,42.0,8,아라동,33.4395285589061,126.561922654444
세미오름(삼의양오름),제주특별자치도 제주시 아라동 산 24-2,29.0,8,아라동,33.4395285589061,126.561922654444
산천단,제주특별자치도 제주시 아라일동 375-4,90.0,8,아라일동,33.447338490736,126.554377685968
용머리해안,제주특별자치도 서귀포시 안덕면 사계리 112-3,3550.0,8,안덕면,33.2334821266939,126.314630553022
카멜리아힐,제주 서귀포시 안덕면 병악로 166,1505.0,8,안덕면,33.290140185764,126.368365225196
화순금모래해수욕장담수수영장,제주특별자치도 서귀포시 안덕면 화순리 776-8,1073.0,8,안덕면,33.2396158073822,126.335648464354
오설록티뮤지엄,제주특별자치도 서귀포시 안덕면 신화역사로 15,991.0,8,안덕면,33.3059240323368,126.289492214804
산방산,제주특별자치도 서귀포시 안덕면 사계리 산 16,986.0,8,안덕면,33.2423923919045,126.313950830111
새별오름,제주특별자치도 제주시 애월읍 봉성리 산 59-8,2037.0,8,애월읍,33.3674086988003,126.355252824574
곽지해수욕장,제주특별자치도 제주시 애월읍 애월원당길 (곽지리),1919.0,8,애월읍,0.0,0.0
애월한담해안산책로,제주특별자치도 제주시 애월읍 곽지리 1359,1231.0,8,애월읍,33.4590846763959,126.310575628004
애월해안도로,제주특별자치도 제주시 애월읍 애월해안로,849.0,8,애월읍,0.0,0.0
윗세오름(웃세오름),제주특별자치도 제주시 애월읍 광령리 산 183-1,520.0,8,애월읍,33.3708702070152,126.477745019755
제주컨트리클럽,제주특별자치도 제주시 영평동 2263-5,20.0,8,영평동,33.4303670043488,126.582307640104
오라동 청보리-메밀꽃밭,제주특별자치도 제주시 오라2동 산 76,300.0,8,오라2동,33.4271589152458,126.505783566255
민오름(오라동),제주특별자치도 제주시 오라2동 산 12,98.0,8,오라2동,33.4765241326101,126.506443018327
연대포구,제주특별자치도 제주시 외도2동,31.0,8,외도2동,33.4945540285904,126.433653396456
다끄네포구(용담포구),제주특별자치도 제주시 용담3동,184.0,8,용담3동,33.5176026138478,126.492845368496
용두암해안도로카페거리,제주특별자치도 제주시 용담3동,151.0,8,용담3동,33.5176026138478,126.492845368496
우도(해양도립공원),제주특별자치도 제주시 우도면 삼양고수물길 1,5640.0,8,우도면,33.5194719510559,126.951016739939
우도산호해변 홍조단괴 서빈백사,제주특별자치도 제주시 우도면 우도해안길 252,389.0,8,우도면,33.5026665933324,126.94374024047
검멀레해변,제주특별자치도 제주시 우도면 우도해안길,242.0,8,우도면,0.0,0.0
우도 비양도,제주특별자치도 제주시 우도면 연평리,185.0,8,우도면,33.5059831398525,126.960256641493
우도올레보트,제주특별자치도 제주시 우도면 연평리 2615-2,160.0,8,우도면,0.0,0.0
이호털보네배낚시,제주특별자치도 제주시 이호1동 1787,78.0,8,이호1동,33.4971983959717,126.449357934605
현사포구,제주특별자치도 제주시 이호1동,26.0,8,이호1동,33.4993272538259,126.457478118712
사려니숲길,제주특별자치도 제주시 조천읍 교래리 산 137-1,6309.0,8,조천읍,33.4077032050543,126.644672355063
함덕해수욕장,제주특별자치도 제주시 조천읍 조함해안로 525,3551.0,8,조천읍,33.5428267548889,126.670510321052
거문오름(UNESCO 세계자연유산),제주특별자치도 제주시 조천읍 선교로 569-36,881.0,8,조천읍,33.4569198735739,126.714752055141
에코랜드 테마파크,제주특별자치도 제주시 조천읍 번영로 1278-169,856.0,8,조천읍,33.4553485144602,126.668852765522
제주돌문화공원,제주특별자치도 제주시 조천읍 남조로 2023,791.0,8,조천읍,33.4513645690599,126.656710998359
추자도,제주특별자치도 제주시 추자면 추자도,488.0,8,추자면,0.0,0.0
모진이몽돌해변,제주특별자치도 제주시 추자면 신양리 56,68.0,8,추자면,33.9461033806051,126.333931047811
최영장군사당,제주특별자치도 제주시 추자면 대서3길 10,62.0,8,추자면,33.9643413785399,126.29629617008
제주올레 18-1코스,제주특별자치도 제주시 추자면 묵리 산 133,59.0,8,추자면,33.9518718453954,126.307710882585
나바론절벽,제주특별자치도 제주시 추자면 영흥리 산 19,37.0,8,추자면,33.9564400554597,126.293961476379
백록담,제주특별자치도 서귀포시 토평동 산 15-1,836.0,8,토평동,33.3469026219773,126.535454418798
보롬왓,제주특별자치도 서귀포시 표선면 번영로 2350-104,1352.0,8,표선면,33.4134956403949,126.752494805945
표선해수욕장,제주특별자치도 서귀포시 표선면 표선리,757.0,8,표선면,33.3265291020204,126.828739926647
다이나믹메이즈,제주특별자치도 서귀포시 표선면 번영로 2644,610.0,8,표선면,33.3991114773805,126.784705796572
성읍민속마을,제주특별자치도 서귀포시 표선면 성읍정의현로 19,571.0,8,표선면,33.3845106375498,126.800376745803
백약이오름,제주특별자치도 서귀포시 표선면 성읍리 산 1,445.0,8,표선면,33.4373134785332,126.791777669204
논짓물,제주특별자치도 서귀포시 하예동,1279.0,8,하예동,33.2412109273802,126.378717518735
하예포구(예래포구),제주특별자치도 서귀포시 하예동,51.0,8,하예동,33.2412109273802,126.378717518735
열리해안길,제주특별자치도 서귀포시 하예동,31.0,8,하예동,33.2412109273802,126.378717518735
영실기암,제주특별자치도 서귀포시 하원동,64.0,8,하원동,33.2785360586219,126.4660226653
쇠소깍해변,제주특별자치도 서귀포시 하효동,225.0,8,하효동,33.2566103527058,126.618338420041
게우지코지,제주특별자치도 서귀포시 하효동,49.0,8,하효동,33.2566103527058,126.618338420041
수월봉 지질트레일,제주특별자치도 제주시 한경면 노을해안로 1013-70,1048.0,8,한경면,33.2942011923765,126.1629872247
판포포구,제주특별자치도 제주시 한경면 판포리 2877-3,964.0,8,한경면,33.3654101549332,126.199622693529
신창풍차해안도로,제주특별자치도 제주시 한경면 신창리 1322-1,776.0,8,한경면,33.3434285042685,126.173908545785
수월봉,제주특별자치도 제주시 한경면 고산리 3760,653.0,8,한경면,33.2947654332257,126.163419003191
환상숲 곶자왈공원,제주특별자치도 제주시 한경면 녹차분재로 594-1,418.0,8,한경면,33.3225720333875,126.263238052577
협재해수욕장,제주특별자치도 제주시 한림읍 한림로 329-10,4159.0,8,한림읍,33.393748028429,126.239431893466
금능해수욕장,제주특별자치도 제주시 한림읍 금능길 119-10,2333.0,8,한림읍,33.3904006277236,126.236205125385
비양도,제주특별자치도 제주시 한림읍 협재리,942.0,8,한림읍,33.3870124134431,126.245988070371
성이시돌목장,제주특별자치도 제주시 한림읍 산록남로 53,908.0,8,한림읍,33.3459802899171,126.321867724832
한림공원,제주특별자치도 제주시 한림읍 한림로 300(협재리),516.0,8,한림읍,33.3902248567191,126.239691183153
어승생,제주특별자치도 제주시 해안동 1100도로 555번지 (해안동 산220-12번지),487.0,8,해안동,33.4570006190886,126.458680781874
돔베낭골,제주특별자치도 서귀포시 호근동,43.0,8,호근동,33.2615116284173,126.532760043118
각시바우오름,제주특별자치도 서귀포시 호근동 2112,29.0,8,호근동,33.276757462252,126.526958677517
곤흘동(곤을동) 마을터,제주특별자치도 제주시 화북1동 4438,68.0,8,화북1동,33.5217669475539,126.557395611224
화북비석거리,제주특별자치도 제주시  화북1동 4008,28.0,8,화북1동,33.5212210778459,126.559989000223
별도연대,제주특별자치도 제주시 화북1동 1537,27.0,8,화북1동,33.5262998282849,126.568135044311
별도포구,제주특별자치도 제주시 화북1동 4269-12,27.0,8,화북1동,33.5250263073704,126.564933622735
삼사석,제주특별자치도 제주시 화북1동 1380-1,12.0,8,화북1동,33.5209736780911,126.573782866815
화북환해장성,제주특별자치도 제주시 화북동,25.0,8,화북동,33.5202191791981,126.565465645477
귤밭76번지,제주특별자치도  제주시 화북이동 5495-2,83.0,8,화북이동,33.4932106218954,126.556236333795
어린이교통공원,제주특별자치도 제주시 명림로 437 (봉개동 4.3 공원 맞은편),342.0,9,(봉개동,33.4514707449038,126.623315505216
도그앤캣,제주특별자치도 서귀포시 홍중로 119-2  601동 107호,31.0,9,601동,33.2631200520785,126.555208973226
제주하늘을날다(패러글라이딩),제주특별자치도 제주시 도남로17길 32 영산홍아파트 가동,145.0,9,가동,33.4911356491329,126.53143833943
서건도,제주특별자치도 서귀포시 강정동 산 1,169.0,9,강정동,33.230076674038,126.498485934147
산지천,제주특별자치도 제주시 건입동,225.0,9,건입동,33.5150321079833,126.531518045313
흑돼지거리,제주특별자치도 제주시 건입동,51.0,9,건입동,33.5150321079833,126.531518045313
비자림,제주특별자치도 제주시 구좌읍 비자숲길 55,7346.0,9,구좌읍,33.4910972819998,126.811461205688
만장굴,제주특별자치도 제주시 구좌읍 만장굴길 182,3540.0,9,구좌읍,33.5283774190136,126.771615754394
월정리해변,제주특별자치도 제주시 구좌읍 월정리 33-3,1428.0,9,구좌읍,33.555112541169,126.798640676717
김녕해수욕장,제주특별자치도 제주시 구좌읍 구좌해안로 237,1144.0,9,구좌읍,33.5572081367731,126.736551213927
용눈이오름,제주특별자치도 제주시 구좌읍 종달리 산28,1052.0,9,구좌읍,33.4612408545956,126.833554576698
휴애리 자연생활공원,"제주특별자치도 서귀포시 남원읍 신례동로 256 (신례리, 휴애리)",1115.0,9,남원읍,33.3085347525753,126.634380832055
물영아리오름,제주특별자치도 서귀포시 남원읍 남조로 988-11,506.0,9,남원읍,33.3612712046496,126.692962246783
제주동백수목원,제주특별자치도 서귀포시 남원읍 위미중앙로300번길 15,435.0,9,남원읍,33.2727234850834,126.675138292326
머체왓숲길,제주특별자치도 서귀포시 남원읍 서성로 755,311.0,9,남원읍,33.3305225860707,126.673899820322
남원큰엉해변,제주특별자치도 서귀포시 남원읍 태위로 522-17,260.0,9,남원읍,33.2733498193692,126.703711977934
제주시 충혼묘지 4·3추모비(박진경 추도비),제주특별자치도 제주시 노형동 산 19-2,39.0,9,노형동,33.4117938658122,126.491828714548
송악산둘레길,제주특별자치도 서귀포시 대정읍 송악관광로 421-1,2991.0,9,대정읍,33.2077669201535,126.290887906913
송악산,제주특별자치도 서귀포시 대정읍 송악관광로 421-1,761.0,9,대정읍,33.2077669201535,126.290887906913
마라도(마라해양도립공원),제주특별자치도 서귀포시 대정읍 마라로101번길 46,658.0,9,대정읍,33.1186178022129,126.267092741572
제주올레 10코스,제주특별자치도 서귀포시 대정읍 상모리 산 2-27,438.0,9,대정읍,33.2016817579066,126.287486518024
케이제주씨워킹,제주특별자치도 서귀포시 대정읍 최남단해안로 120,426.0,9,대정읍,33.2100650813269,126.258379774648
도두동 무지개 해안도로,제주특별자치도 제주시 도두1동,803.0,9,도두1동,33.5010079784134,126.474247107518
제주올레 17코스,제주특별자치도 제주시 도두1동 2612-1,399.0,9,도두1동,33.50524279514,126.468217854413
도두해안도로,제주특별자치도 제주시 도두2동 706-3,32.0,9,도두2동,33.510401625438,126.482338576502
도두봉,제주특별자치도 제주시 도두동 산 1,595.0,9,도두동,33.5085344192839,126.469041395771
범섬,제주특별자치도 서귀포시 법환동,331.0,9,법환동,33.2431480688709,126.514144783946
제주올레 6코스,제주특별자치도 서귀포시 보목동 1377-4,296.0,9,보목동,33.2371501897263,126.596001249754
제지기오름,제주특별자치도 서귀포시 보목동 275-1,74.0,9,보목동,33.24177090588,126.610078628977
개오리오름,제주특별자치도 제주시 봉개동,24.0,9,봉개동,33.4917232670658,126.594687244154
"안세미 (명도오름,明道岳)",제주특별자치도 제주시 봉개동 산2,24.0,9,봉개동,33.468206886739,126.606102137369
아라리오뮤지엄탑동시네마,제주특별자치도 제주시 삼도2동 1261-8,72.0,9,삼도2동,33.517445248574,126.523396875442
제주올레 18코스,제주특별자치도 제주시 삼양1동 1131-2,310.0,9,삼양1동,33.5286552757978,126.596319573991
삼양 셋다리물,제주특별자치도 제주시 삼양1동 1938-9,59.0,9,삼양1동,33.5289556528478,126.589153338424
삼양해안도로,제주특별자치도 제주시 삼양2동,42.0,9,삼양2동,33.5228672016569,126.584664643949
삼양해수욕장,제주특별자치도 제주시 삼양동,318.0,9,삼양동,33.521885794087,126.585599365994
1100고지습지,제주특별자치도 서귀포시 색달동 산 1-2,378.0,9,색달동,33.3575245371214,126.462896523457
별내린전망대,제주특별자치도 서귀포시 색달동 2938-1,78.0,9,색달동,33.2474860429014,126.416836511421
솔동산8경,제주특별자치도 서귀포시 서귀동 솔동산로,38.0,9,서귀동,0.0,0.0
천지연기정길,제주특별자치도서귀포시 서귀동 961-33,34.0,9,서귀동,33.2471973965458,126.554863002553
제주올레 7-1코스,제주특별자치도 서귀포시 서호동 553-1,100.0,9,서호동,33.2678472135273,126.520104904348
바람모루,제주특별자치도 서귀포시 서호동,34.0,9,서호동,33.2641864864094,126.517346819897
서귀포해안,제주특별자치도 서귀포시 서호동,32.0,9,서호동,33.2641864864094,126.517346819897
제주올레 7코스,제주특별자치도 서귀포시 서홍동 795-1,1285.0,9,서홍동,33.2405417950496,126.548102419629
황우지해안,제주특별자치도 서귀포시 서홍동 766-1,1033.0,9,서홍동,33.2415695572508,126.549766357796
외돌개,제주특별자치도 서귀포시 서홍동 791,712.0,9,서홍동,33.240076867127,126.545663944153
새연교,제주특별자치도 서귀포시 서홍동 707-4,677.0,9,서홍동,33.2385316399892,126.558886662963
서귀포칠십리시공원,제주특별자치도 서귀포시 서홍동 576-9,224.0,9,서홍동,33.2460184148318,126.553476831206
성산초등학교 서청특별중대 주둔지,제주특별자치도 서귀포시 성산면 성산리 171-9,61.0,9,성산면,0.0,0.0
성산일출봉(UNESCO 세계자연유산),제주특별자치도 서귀포시 성산읍 일출로 284-12,6938.0,9,성산읍,33.462233758483,126.936800689963
섭지코지,제주 서귀포시 성산읍 고성리,2580.0,9,성산읍,33.4493165910551,126.90826946679
아쿠아플라넷 제주,제주특별자치도 서귀포시 성산읍 섭지코지로 95,1286.0,9,성산읍,33.4329768585971,126.927795526895
빛의 벙커,제주특별자치도 서귀포시 성산읍 고성리  2039-22,694.0,9,성산읍,33.4394462297885,126.899699215312
광치기해변,제주특별자치도 서귀포시 성산읍 섭지코지로 63,606.0,9,성산읍,33.4370213964037,126.922403414639
삼의악트레킹코스,제주특별자치도 제주시 아라동 산 24-2,70.0,9,아라동,33.4395285589061,126.561922654444
세미오름(삼의양오름),제주특별자치도 제주시 아라동 산 24-2,59.0,9,아라동,33.4395285589061,126.561922654444
산천단,제주특별자치도 제주시 아라일동 375-4,90.0,9,아라일동,33.447338490736,126.554377685968
용머리해안,제주특별자치도 서귀포시 안덕면 사계리 112-3,4438.0,9,안덕면,33.2334821266939,126.314630553022
카멜리아힐,제주 서귀포시 안덕면 병악로 166,1742.0,9,안덕면,33.290140185764,126.368365225196
방주교회,제주특별자치도 서귀포시 안덕면 산록남로762번길 113,1154.0,9,안덕면,33.305124721628,126.387787906087
오설록티뮤지엄,제주특별자치도 서귀포시 안덕면 신화역사로 15,1121.0,9,안덕면,33.3059240323368,126.289492214804
산방산,제주특별자치도 서귀포시 안덕면 사계리 산 16,1103.0,9,안덕면,33.2423923919045,126.313950830111
새별오름,제주특별자치도 제주시 애월읍 봉성리 산 59-8,3050.0,9,애월읍,33.3674086988003,126.355252824574
애월한담해안산책로,제주특별자치도 제주시 애월읍 곽지리 1359,1283.0,9,애월읍,33.4590846763959,126.310575628004
애월해안도로,제주특별자치도 제주시 애월읍 애월해안로,1023.0,9,애월읍,0.0,0.0
곽지해수욕장,제주특별자치도 제주시 애월읍 애월원당길 (곽지리),834.0,9,애월읍,0.0,0.0
윗세오름(웃세오름),제주특별자치도 제주시 애월읍 광령리 산 183-1,648.0,9,애월읍,33.3708702070152,126.477745019755
제주컨트리클럽,제주특별자치도 제주시 영평동 2263-5,18.0,9,영평동,33.4303670043488,126.582307640104
오라동 청보리-메밀꽃밭,제주특별자치도 제주시 오라2동 산 76,482.0,9,오라2동,33.4271589152458,126.505783566255
민오름(오라동),제주특별자치도 제주시 오라2동 산 12,112.0,9,오라2동,33.4765241326101,126.506443018327
연대포구,제주특별자치도 제주시 외도2동,35.0,9,외도2동,33.4945540285904,126.433653396456
용두암해안도로카페거리,제주특별자치도 제주시 용담3동,145.0,9,용담3동,33.5176026138478,126.492845368496
다끄네포구(용담포구),제주특별자치도 제주시 용담3동,101.0,9,용담3동,33.5176026138478,126.492845368496
우도(해양도립공원),제주특별자치도 제주시 우도면 삼양고수물길 1,5152.0,9,우도면,33.5194719510559,126.951016739939
우도산호해변 홍조단괴 서빈백사,제주특별자치도 제주시 우도면 우도해안길 252,337.0,9,우도면,33.5026665933324,126.94374024047
검멀레해변,제주특별자치도 제주시 우도면 우도해안길,249.0,9,우도면,0.0,0.0
우도 비양도,제주특별자치도 제주시 우도면 연평리,218.0,9,우도면,33.5059831398525,126.960256641493
우도올레보트,제주특별자치도 제주시 우도면 연평리 2615-2,152.0,9,우도면,0.0,0.0
이호털보네배낚시,제주특별자치도 제주시 이호1동 1787,52.0,9,이호1동,33.4971983959717,126.449357934605
현사포구,제주특별자치도 제주시 이호1동,25.0,9,이호1동,33.4993272538259,126.457478118712
사려니숲길,제주특별자치도 제주시 조천읍 교래리 산 137-1,5792.0,9,조천읍,33.4077032050543,126.644672355063
함덕해수욕장,제주특별자치도 제주시 조천읍 조함해안로 525,2762.0,9,조천읍,33.5428267548889,126.670510321052
에코랜드 테마파크,제주특별자치도 제주시 조천읍 번영로 1278-169,1129.0,9,조천읍,33.4553485144602,126.668852765522
산굼부리,제주특별자치도 제주시 조천읍 비자림로 768,1067.0,9,조천읍,33.4348735442325,126.688504038171
거문오름(UNESCO 세계자연유산),제주특별자치도 제주시 조천읍 선교로 569-36,966.0,9,조천읍,33.4569198735739,126.714752055141
추자도,제주특별자치도 제주시 추자면 추자도,646.0,9,추자면,0.0,0.0
제주올레 18-1코스,제주특별자치도 제주시 추자면 묵리 산 133,84.0,9,추자면,33.9518718453954,126.307710882585
최영장군사당,제주특별자치도 제주시 추자면 대서3길 10,72.0,9,추자면,33.9643413785399,126.29629617008
모진이몽돌해변,제주특별자치도 제주시 추자면 신양리 56,68.0,9,추자면,33.9461033806051,126.333931047811
나바론절벽,제주특별자치도 제주시 추자면 영흥리 산 19,64.0,9,추자면,33.9564400554597,126.293961476379
백록담,제주특별자치도 서귀포시 토평동 산 15-1,593.0,9,토평동,33.3469026219773,126.535454418798
보롬왓,제주특별자치도 서귀포시 표선면 번영로 2350-104,1865.0,9,표선면,33.4134956403949,126.752494805945
성읍민속마을,제주특별자치도 서귀포시 표선면 성읍정의현로 19,681.0,9,표선면,33.3845106375498,126.800376745803
다이나믹메이즈,제주특별자치도 서귀포시 표선면 번영로 2644,636.0,9,표선면,33.3991114773805,126.784705796572
백약이오름,제주특별자치도 서귀포시 표선면 성읍리 산 1,575.0,9,표선면,33.4373134785332,126.791777669204
붉은오름 자연휴양림,제주특별자치도 서귀포시 표선면 남조로 1487-73,525.0,9,표선면,33.4014287623403,126.675670597493
논짓물,제주특별자치도 서귀포시 하예동,298.0,9,하예동,33.2412109273802,126.378717518735
하예포구(예래포구),제주특별자치도 서귀포시 하예동,57.0,9,하예동,33.2412109273802,126.378717518735
열리해안길,제주특별자치도 서귀포시 하예동,34.0,9,하예동,33.2412109273802,126.378717518735
영실기암,제주특별자치도 서귀포시 하원동,67.0,9,하원동,33.2785360586219,126.4660226653
쇠소깍해변,제주특별자치도 서귀포시 하효동,162.0,9,하효동,33.2566103527058,126.618338420041
게우지코지,제주특별자치도 서귀포시 하효동,60.0,9,하효동,33.2566103527058,126.618338420041
수월봉 지질트레일,제주특별자치도 제주시 한경면 노을해안로 1013-70,1204.0,9,한경면,33.2942011923765,126.1629872247
신창풍차해안도로,제주특별자치도 제주시 한경면 신창리 1322-1,766.0,9,한경면,33.3434285042685,126.173908545785
수월봉,제주특별자치도 제주시 한경면 고산리 3760,746.0,9,한경면,33.2947654332257,126.163419003191
판포포구,제주특별자치도 제주시 한경면 판포리 2877-3,635.0,9,한경면,33.3654101549332,126.199622693529
환상숲 곶자왈공원,제주특별자치도 제주시 한경면 녹차분재로 594-1,417.0,9,한경면,33.3225720333875,126.263238052577
협재해수욕장,제주특별자치도 제주시 한림읍 한림로 329-10,2191.0,9,한림읍,33.393748028429,126.239431893466
금능해수욕장,제주특별자치도 제주시 한림읍 금능길 119-10,1279.0,9,한림읍,33.3904006277236,126.236205125385
비양도,제주특별자치도 제주시 한림읍 협재리,1176.0,9,한림읍,33.3870124134431,126.245988070371
성이시돌목장,제주특별자치도 제주시 한림읍 산록남로 53,1175.0,9,한림읍,33.3459802899171,126.321867724832
한림공원,제주특별자치도 제주시 한림읍 한림로 300(협재리),573.0,9,한림읍,33.3902248567191,126.239691183153
어승생,제주특별자치도 제주시 해안동 1100도로 555번지 (해안동 산220-12번지),669.0,9,해안동,33.4570006190886,126.458680781874
돔베낭골,제주특별자치도 서귀포시 호근동,50.0,9,호근동,33.2615116284173,126.532760043118
각시바우오름,제주특별자치도 서귀포시 호근동 2112,32.0,9,호근동,33.276757462252,126.526958677517
곤흘동(곤을동) 마을터,제주특별자치도 제주시 화북1동 4438,99.0,9,화북1동,33.5217669475539,126.557395611224
화북비석거리,제주특별자치도 제주시  화북1동 4008,37.0,9,화북1동,33.5212210778459,126.559989000223
별도연대,제주특별자치도 제주시 화북1동 1537,26.0,9,화북1동,33.5262998282849,126.568135044311
별도포구,제주특별자치도 제주시 화북1동 4269-12,25.0,9,화북1동,33.5250263073704,126.564933622735
삼사석,제주특별자치도 제주시 화북1동 1380-1,24.0,9,화북1동,33.5209736780911,126.573782866815
화북환해장성,제주특별자치도 제주시 화북동,21.0,9,화북동,33.5202191791981,126.565465645477
귤밭76번지,제주특별자치도  제주시 화북이동 5495-2,143.0,9,화북이동,33.4932106218954,126.556236333795
어린이교통공원,제주특별자치도 제주시 명림로 437 (봉개동 4.3 공원 맞은편),298.0,10,(봉개동,33.4514707449038,126.623315505216
도그앤캣,제주특별자치도 서귀포시 홍중로 119-2  601동 107호,29.0,10,601동,33.2631200520785,126.555208973226
제주하늘을날다(패러글라이딩),제주특별자치도 제주시 도남로17길 32 영산홍아파트 가동,97.0,10,가동,33.4911356491329,126.53143833943
서건도,제주특별자치도 서귀포시 강정동 산 1,97.0,10,강정동,33.230076674038,126.498485934147
산지천,제주특별자치도 제주시 건입동,147.0,10,건입동,33.5150321079833,126.531518045313
흑돼지거리,제주특별자치도 제주시 건입동,59.0,10,건입동,33.5150321079833,126.531518045313
비자림,제주특별자치도 제주시 구좌읍 비자숲길 55,7551.0,10,구좌읍,33.4910972819998,126.811461205688
만장굴,제주특별자치도 제주시 구좌읍 만장굴길 182,3539.0,10,구좌읍,33.5283774190136,126.771615754394
용눈이오름,제주특별자치도 제주시 구좌읍 종달리 산28,1476.0,10,구좌읍,33.4612408545956,126.833554576698
다랑쉬오름(월랑봉),제주특별자치도 제주시 구좌읍 세화리 2705,1255.0,10,구좌읍,33.4750169662769,126.826518297601
월정리해변,제주특별자치도 제주시 구좌읍 월정리 33-3,1056.0,10,구좌읍,33.555112541169,126.798640676717
휴애리 자연생활공원,"제주특별자치도 서귀포시 남원읍 신례동로 256 (신례리, 휴애리)",1315.0,10,남원읍,33.3085347525753,126.634380832055
물영아리오름,제주특별자치도 서귀포시 남원읍 남조로 988-11,758.0,10,남원읍,33.3612712046496,126.692962246783
제주동백수목원,제주특별자치도 서귀포시 남원읍 위미리 927,666.0,10,남원읍,33.2749750699562,126.677991931671
동백포레스트,서귀포시 남원읍 신례리 1767,456.0,10,남원읍,33.3003449035082,126.636216133758
남원큰엉해변,제주특별자치도 서귀포시 남원읍 태위로 522-17,349.0,10,남원읍,33.2733498193692,126.703711977934
제주시 충혼묘지 4·3추모비(박진경 추도비),제주특별자치도 제주시 노형동 산 19-2,38.0,10,노형동,33.4117938658122,126.491828714548
송악산둘레길,제주특별자치도 서귀포시 대정읍 송악관광로 421-1,4033.0,10,대정읍,33.2077669201535,126.290887906913
송악산,제주특별자치도 서귀포시 대정읍 송악관광로 421-1,849.0,10,대정읍,33.2077669201535,126.290887906913
마라도(마라해양도립공원),제주특별자치도 서귀포시 대정읍 마라로101번길 46,689.0,10,대정읍,33.1186178022129,126.267092741572
제주올레 10코스,제주특별자치도 서귀포시 대정읍 상모리 산 2-27,497.0,10,대정읍,33.2016817579066,126.287486518024
제주곶자왈도립공원,제주특별자치도 서귀포시 대정읍 에듀시티로 178,329.0,10,대정읍,33.2832221526695,126.273571694591
도두동 무지개 해안도로,제주특별자치도 제주시 도두1동,979.0,10,도두1동,33.5010079784134,126.474247107518
제주올레 17코스,제주특별자치도 제주시 도두1동 2612-1,563.0,10,도두1동,33.50524279514,126.468217854413
도두해안도로,제주특별자치도 제주시 도두2동 706-3,26.0,10,도두2동,33.510401625438,126.482338576502
도두봉,제주특별자치도 제주시 도두동 산 1,674.0,10,도두동,33.5085344192839,126.469041395771
범섬,제주특별자치도 서귀포시 법환동,337.0,10,법환동,33.2431480688709,126.514144783946
제주올레 6코스,제주특별자치도 서귀포시 보목동 1377-4,348.0,10,보목동,33.2371501897263,126.596001249754
제지기오름,제주특별자치도 서귀포시 보목동 275-1,79.0,10,보목동,33.24177090588,126.610078628977
개오리오름,제주특별자치도 제주시 봉개동,26.0,10,봉개동,33.4917232670658,126.594687244154
"안세미 (명도오름,明道岳)",제주특별자치도 제주시 봉개동 산2,15.0,10,봉개동,33.468206886739,126.606102137369
아라리오뮤지엄탑동시네마,제주특별자치도 제주시 삼도2동 1261-8,47.0,10,삼도2동,33.517445248574,126.523396875442
제주올레 18코스,제주특별자치도 제주시 삼양1동 1131-2,393.0,10,삼양1동,33.5286552757978,126.596319573991
삼양 셋다리물,제주특별자치도 제주시 삼양1동 1938-9,26.0,10,삼양1동,33.5289556528478,126.589153338424
삼양해안도로,제주특별자치도 제주시 삼양2동,35.0,10,삼양2동,33.5228672016569,126.584664643949
삼양해수욕장,제주특별자치도 제주시 삼양동,320.0,10,삼양동,33.521885794087,126.585599365994
1100고지습지,제주특별자치도 서귀포시 색달동 산 1-2,667.0,10,색달동,33.3575245371214,126.462896523457
별내린전망대,제주특별자치도 서귀포시 색달동 2938-1,106.0,10,색달동,33.2474860429014,126.416836511421
솔동산8경,제주특별자치도 서귀포시 서귀동 솔동산로,51.0,10,서귀동,0.0,0.0
천지연기정길,제주특별자치도서귀포시 서귀동 961-33,32.0,10,서귀동,33.2471973965458,126.554863002553
제주올레 7-1코스,제주특별자치도 서귀포시 서호동 553-1,83.0,10,서호동,33.2678472135273,126.520104904348
바람모루,제주특별자치도 서귀포시 서호동,32.0,10,서호동,33.2641864864094,126.517346819897
서귀포해안,제주특별자치도 서귀포시 서호동,24.0,10,서호동,33.2641864864094,126.517346819897
제주올레 7코스,제주특별자치도 서귀포시 서홍동 795-1,1185.0,10,서홍동,33.2405417950496,126.548102419629
새연교,제주특별자치도 서귀포시 서홍동 707-4,954.0,10,서홍동,33.2385316399892,126.558886662963
외돌개,제주특별자치도 서귀포시 서홍동 791,917.0,10,서홍동,33.240076867127,126.545663944153
황우지해안,제주특별자치도 서귀포시 서홍동 766-1,756.0,10,서홍동,33.2415695572508,126.549766357796
서귀포칠십리시공원,제주특별자치도 서귀포시 서홍동 576-9,275.0,10,서홍동,33.2460184148318,126.553476831206
성산초등학교 서청특별중대 주둔지,제주특별자치도 서귀포시 성산면 성산리 171-9,72.0,10,성산면,0.0,0.0
성산일출봉(UNESCO 세계자연유산),제주특별자치도 서귀포시 성산읍 일출로 284-12,8510.0,10,성산읍,33.462233758483,126.936800689963
섭지코지,제주 서귀포시 성산읍 고성리,3338.0,10,성산읍,33.4493165910551,126.90826946679
아쿠아플라넷 제주,제주특별자치도 서귀포시 성산읍 섭지코지로 95,1050.0,10,성산읍,33.4329768585971,126.927795526895
제주올레 1코스,제주특별자치도 서귀포시 성산읍 오조리 396-1,829.0,10,성산읍,33.4719633582091,126.91490546392
빛의 벙커,제주특별자치도 서귀포시 성산읍 고성리  2039-22,826.0,10,성산읍,33.4394462297885,126.899699215312
삼의악트레킹코스,제주특별자치도 제주시 아라동 산 24-2,78.0,10,아라동,33.4395285589061,126.561922654444
세미오름(삼의양오름),제주특별자치도 제주시 아라동 산 24-2,39.0,10,아라동,33.4395285589061,126.561922654444
산천단,제주특별자치도 제주시 아라일동 375-4,53.0,10,아라일동,33.447338490736,126.554377685968
용머리해안,제주특별자치도 서귀포시 안덕면 사계리 112-3,4564.0,10,안덕면,33.2334821266939,126.314630553022
카멜리아힐,제주 서귀포시 안덕면 병악로 166,2490.0,10,안덕면,33.290140185764,126.368365225196
오설록티뮤지엄,제주특별자치도 서귀포시 안덕면 신화역사로 15,1405.0,10,안덕면,33.3059240323368,126.289492214804
산방산,제주특별자치도 서귀포시 안덕면 사계리 산 16,1388.0,10,안덕면,33.2423923919045,126.313950830111
방주교회,제주특별자치도 서귀포시 안덕면 산록남로762번길 113,1199.0,10,안덕면,33.305124721628,126.387787906087
새별오름,제주특별자치도 제주시 애월읍 봉성리 산 59-8,5285.0,10,애월읍,33.3674086988003,126.355252824574
애월한담해안산책로,제주특별자치도 제주시 애월읍 곽지리 1359,1733.0,10,애월읍,33.4590846763959,126.310575628004
윗세오름(웃세오름),제주특별자치도 제주시 애월읍 광령리 산 183-1,1230.0,10,애월읍,33.3708702070152,126.477745019755
애월해안도로,제주특별자치도 제주시 애월읍 애월해안로,923.0,10,애월읍,0.0,0.0
천아숲길 천아계곡,제주특별자치도 제주시 애월읍 봉성리 산 1,727.0,10,애월읍,33.354269668296,126.423009747397
제주컨트리클럽,제주특별자치도 제주시 영평동 2263-5,18.0,10,영평동,33.4303670043488,126.582307640104
오라동 청보리-메밀꽃밭,제주특별자치도 제주시 오라2동 산 76,545.0,10,오라2동,33.4271589152458,126.505783566255
민오름(오라동),제주특별자치도 제주시 오라2동 산 12,134.0,10,오라2동,33.4765241326101,126.506443018327
연대포구,제주특별자치도 제주시 외도2동,30.0,10,외도2동,33.4945540285904,126.433653396456
용두암해안도로카페거리,제주특별자치도 제주시 용담3동,163.0,10,용담3동,33.5176026138478,126.492845368496
다끄네포구(용담포구),제주특별자치도 제주시 용담3동,64.0,10,용담3동,33.5176026138478,126.492845368496
우도(해양도립공원),제주특별자치도 제주시 우도면 삼양고수물길 1,5089.0,10,우도면,33.5194719510559,126.951016739939
검멀레해변,제주특별자치도 제주시 우도면 우도해안길,383.0,10,우도면,0.0,0.0
우도산호해변 홍조단괴 서빈백사,제주특별자치도 제주시 우도면 우도해안길 252,283.0,10,우도면,33.5026665933324,126.94374024047
우도 비양도,제주특별자치도 제주시 우도면 연평리,227.0,10,우도면,33.5059831398525,126.960256641493
훈데르트바서파크,제주특별자치도 제주시 우도면 우도해안길 32-12,143.0,10,우도면,33.4931638593845,126.955738334149
이호털보네배낚시,제주특별자치도 제주시 이호1동 1787,72.0,10,이호1동,33.4971983959717,126.449357934605
현사포구,제주특별자치도 제주시 이호1동,33.0,10,이호1동,33.4993272538259,126.457478118712
사려니숲길,제주특별자치도 제주시 조천읍 교래리 산 137-1,6701.0,10,조천읍,33.4077032050543,126.644672355063
닭머르해안길,제주특별자치도 제주시 조천읍 신촌북3길 62-1,2099.0,10,조천읍,33.5378165657626,126.613255991755
함덕해수욕장,제주특별자치도 제주시 조천읍 조함해안로 525,2043.0,10,조천읍,33.5428267548889,126.670510321052
산굼부리,제주특별자치도 제주시 조천읍 비자림로 768,1612.0,10,조천읍,33.4348735442325,126.688504038171
에코랜드 테마파크,제주특별자치도 제주시 조천읍 번영로 1278-169,1275.0,10,조천읍,33.4553485144602,126.668852765522
추자도,제주특별자치도 제주시 추자면 추자도,704.0,10,추자면,0.0,0.0
제주올레 18-1코스,제주특별자치도 제주시 추자면 묵리 산 133,160.0,10,추자면,33.9518718453954,126.307710882585
최영장군사당,제주특별자치도 제주시 추자면 대서3길 10,93.0,10,추자면,33.9643413785399,126.29629617008
모진이몽돌해변,제주특별자치도 제주시 추자면 신양리 56,63.0,10,추자면,33.9461033806051,126.333931047811
나바론절벽,제주특별자치도 제주시 추자면 영흥리 산 19,53.0,10,추자면,33.9564400554597,126.293961476379
백록담,제주특별자치도 서귀포시 토평동 산 15-1,685.0,10,토평동,33.3469026219773,126.535454418798
보롬왓,제주특별자치도 서귀포시 표선면 번영로 2350-104,1617.0,10,표선면,33.4134956403949,126.752494805945
따라비오름,제주특별자치도 서귀포시 표선면 가시리 산 62,1610.0,10,표선면,33.3860381518026,126.750266535353
성읍민속마을,제주특별자치도 서귀포시 표선면 성읍정의현로 19,897.0,10,표선면,33.3845106375498,126.800376745803
백약이오름,제주특별자치도 서귀포시 표선면 성읍리 산 1,829.0,10,표선면,33.4373134785332,126.791777669204
붉은오름 자연휴양림,제주특별자치도 서귀포시 표선면 남조로 1487-73,670.0,10,표선면,33.4014287623403,126.675670597493
논짓물,제주특별자치도 서귀포시 하예동,188.0,10,하예동,33.2412109273802,126.378717518735
하예포구(예래포구),제주특별자치도 서귀포시 하예동,41.0,10,하예동,33.2412109273802,126.378717518735
열리해안길,제주특별자치도 서귀포시 하예동,28.0,10,하예동,33.2412109273802,126.378717518735
영실기암,제주특별자치도 서귀포시 하원동,105.0,10,하원동,33.2785360586219,126.4660226653
쇠소깍해변,제주특별자치도 서귀포시 하효동,167.0,10,하효동,33.2566103527058,126.618338420041
게우지코지,제주특별자치도 서귀포시 하효동,56.0,10,하효동,33.2566103527058,126.618338420041
수월봉 지질트레일,제주특별자치도 제주시 한경면 노을해안로 1013-70,2297.0,10,한경면,33.2942011923765,126.1629872247
수월봉,제주특별자치도 제주시 한경면 고산리 3760,965.0,10,한경면,33.2947654332257,126.163419003191
신창풍차해안도로,제주특별자치도 제주시 한경면 신창리 1322-1,772.0,10,한경면,33.3434285042685,126.173908545785
환상숲 곶자왈공원,제주특별자치도 제주시 한경면 녹차분재로 594-1,552.0,10,한경면,33.3225720333875,126.263238052577
싱계물 공원,제주 제주시 한경면 신창리 1322-1,390.0,10,한경면,33.3434285042685,126.173908545785
협재해수욕장,제주특별자치도 제주시 한림읍 한림로 329-10,1617.0,10,한림읍,33.393748028429,126.239431893466
성이시돌목장,제주특별자치도 제주시 한림읍 산록남로 53,1183.0,10,한림읍,33.3459802899171,126.321867724832
비양도,제주특별자치도 제주시 한림읍 협재리,1071.0,10,한림읍,33.3870124134431,126.245988070371
금악오름(왕매),제주특별자치도 제주시 한림읍 금악리 산 1-1,700.0,10,한림읍,33.3556958434344,126.305586388283
금능해수욕장,제주특별자치도 제주시 한림읍 금능길 119-10,693.0,10,한림읍,33.3904006277236,126.236205125385
어승생,제주특별자치도 제주시 해안동 1100도로 555번지 (해안동 산220-12번지),953.0,10,해안동,33.4570006190886,126.458680781874
돔베낭골,제주특별자치도 서귀포시 호근동,46.0,10,호근동,33.2615116284173,126.532760043118
각시바우오름,제주특별자치도 서귀포시 호근동 2112,36.0,10,호근동,33.276757462252,126.526958677517
곤흘동(곤을동) 마을터,제주특별자치도 제주시 화북1동 4438,83.0,10,화북1동,33.5217669475539,126.557395611224
별도연대,제주특별자치도 제주시 화북1동 1537,27.0,10,화북1동,33.5262998282849,126.568135044311
화북비석거리,제주특별자치도 제주시  화북1동 4008,25.0,10,화북1동,33.5212210778459,126.559989000223
삼사석,제주특별자치도 제주시 화북1동 1380-1,23.0,10,화북1동,33.5209736780911,126.573782866815
별도포구,제주특별자치도 제주시 화북1동 4269-12,20.0,10,화북1동,33.5250263073704,126.564933622735
화북환해장성,제주특별자치도 제주시 화북동,25.0,10,화북동,33.5202191791981,126.565465645477
귤밭76번지,제주특별자치도  제주시 화북이동 5495-2,142.0,10,화북이동,33.4932106218954,126.556236333795
어린이교통공원,제주특별자치도 제주시 명림로 437 (봉개동 4.3 공원 맞은편),327.0,11,(봉개동,33.4514707449038,126.623315505216
도그앤캣,제주특별자치도 서귀포시 홍중로 119-2  601동 107호,22.0,11,601동,33.2631200520785,126.555208973226
제주하늘을날다(패러글라이딩),제주특별자치도 제주시 도남로17길 32 영산홍아파트 가동,78.0,11,가동,33.4911356491329,126.53143833943
서건도,제주특별자치도 서귀포시 강정동 산 1,136.0,11,강정동,33.230076674038,126.498485934147
산지천,제주특별자치도 제주시 건입동,102.0,11,건입동,33.5150321079833,126.531518045313
흑돼지거리,제주특별자치도 제주시 건입동,64.0,11,건입동,33.5150321079833,126.531518045313
비자림,제주특별자치도 제주시 구좌읍 비자숲길 55,6512.0,11,구좌읍,33.4910972819998,126.811461205688
만장굴,제주특별자치도 제주시 구좌읍 만장굴길 182,3051.0,11,구좌읍,33.5283774190136,126.771615754394
용눈이오름,제주특별자치도 제주시 구좌읍 종달리 산28,1625.0,11,구좌읍,33.4612408545956,126.833554576698
다랑쉬오름(월랑봉),제주특별자치도 제주시 구좌읍 세화리 2705,1229.0,11,구좌읍,33.4750169662769,126.826518297601
월정리해변,제주특별자치도 제주시 구좌읍 월정리 33-3,1015.0,11,구좌읍,33.555112541169,126.798640676717
동백포레스트,서귀포시 남원읍 신례리 1767,3007.0,11,남원읍,33.3003449035082,126.636216133758
제주동백수목원,제주특별자치도 서귀포시 남원읍 위미리 927,2725.0,11,남원읍,33.2749750699562,126.677991931671
휴애리 자연생활공원,"제주특별자치도 서귀포시 남원읍 신례동로 256 (신례리, 휴애리)",1529.0,11,남원읍,33.3085347525753,126.634380832055
물영아리오름,제주특별자치도 서귀포시 남원읍 남조로 988-11,593.0,11,남원읍,33.3612712046496,126.692962246783
제주올레 5코스,제주특별자치도 서귀포시 남원읍 남태해안로 140,432.0,11,남원읍,33.2778173019586,126.719604623129
제주시 충혼묘지 4·3추모비(박진경 추도비),제주특별자치도 제주시 노형동 산 19-2,27.0,11,노형동,33.4117938658122,126.491828714548
송악산둘레길,제주특별자치도 서귀포시 대정읍 송악관광로 421-1,4003.0,11,대정읍,33.2077669201535,126.290887906913
마라도(마라해양도립공원),제주특별자치도 서귀포시 대정읍 마라로101번길 46,639.0,11,대정읍,33.1186178022129,126.267092741572
송악산,제주특별자치도 서귀포시 대정읍 송악관광로 421-1,608.0,11,대정읍,33.2077669201535,126.290887906913
제주올레 10코스,제주특별자치도 서귀포시 대정읍 상모리 산 2-27,602.0,11,대정읍,33.2016817579066,126.287486518024
제주곶자왈도립공원,제주특별자치도 서귀포시 대정읍 에듀시티로 178,268.0,11,대정읍,33.2832221526695,126.273571694591
도두동 무지개 해안도로,제주특별자치도 제주시 도두1동,1489.0,11,도두1동,33.5010079784134,126.474247107518
제주올레 17코스,제주특별자치도 제주시 도두1동 2612-1,719.0,11,도두1동,33.50524279514,126.468217854413
도두해안도로,제주특별자치도 제주시 도두2동 706-3,15.0,11,도두2동,33.510401625438,126.482338576502
도두봉,제주특별자치도 제주시 도두동 산 1,734.0,11,도두동,33.5085344192839,126.469041395771
범섬,제주특별자치도 서귀포시 법환동,250.0,11,법환동,33.2431480688709,126.514144783946
제주올레 6코스,제주특별자치도 서귀포시 보목동 1377-4,310.0,11,보목동,33.2371501897263,126.596001249754
제지기오름,제주특별자치도 서귀포시 보목동 275-1,60.0,11,보목동,33.24177090588,126.610078628977
"안세미 (명도오름,明道岳)",제주특별자치도 제주시 봉개동 산2,14.0,11,봉개동,33.468206886739,126.606102137369
개오리오름,제주특별자치도 제주시 봉개동,13.0,11,봉개동,33.4917232670658,126.594687244154
아라리오뮤지엄탑동시네마,제주특별자치도 제주시 삼도2동 1261-8,67.0,11,삼도2동,33.517445248574,126.523396875442
제주올레 18코스,제주특별자치도 제주시 삼양1동 1131-2,571.0,11,삼양1동,33.5286552757978,126.596319573991
삼양 셋다리물,제주특별자치도 제주시 삼양1동 1938-9,23.0,11,삼양1동,33.5289556528478,126.589153338424
삼양해안도로,제주특별자치도 제주시 삼양2동,28.0,11,삼양2동,33.5228672016569,126.584664643949
삼양해수욕장,제주특별자치도 제주시 삼양동,299.0,11,삼양동,33.521885794087,126.585599365994
1100고지습지,제주특별자치도 서귀포시 색달동 산 1-2,1286.0,11,색달동,33.3575245371214,126.462896523457
별내린전망대,제주특별자치도 서귀포시 색달동 2938-1,92.0,11,색달동,33.2474860429014,126.416836511421
솔동산8경,제주특별자치도 서귀포시 서귀동 솔동산로,35.0,11,서귀동,0.0,0.0
천지연기정길,제주특별자치도서귀포시 서귀동 961-33,30.0,11,서귀동,33.2471973965458,126.554863002553
제주올레 7-1코스,제주특별자치도 서귀포시 서호동 553-1,92.0,11,서호동,33.2678472135273,126.520104904348
바람모루,제주특별자치도 서귀포시 서호동,21.0,11,서호동,33.2641864864094,126.517346819897
서귀포해안,제주특별자치도 서귀포시 서호동,18.0,11,서호동,33.2641864864094,126.517346819897
제주올레 7코스,제주특별자치도 서귀포시 서홍동 795-1,1590.0,11,서홍동,33.2405417950496,126.548102419629
새연교,제주특별자치도 서귀포시 서홍동 707-4,1052.0,11,서홍동,33.2385316399892,126.558886662963
외돌개,제주특별자치도 서귀포시 서홍동 791,906.0,11,서홍동,33.240076867127,126.545663944153
황우지해안,제주특별자치도 서귀포시 서홍동 766-1,684.0,11,서홍동,33.2415695572508,126.549766357796
걸매생태공원,제주특별자치도 서귀포시 서홍동 1207,192.0,11,서홍동,33.2514199379663,126.554744909063
성산초등학교 서청특별중대 주둔지,제주특별자치도 서귀포시 성산면 성산리 171-9,39.0,11,성산면,0.0,0.0
성산일출봉(UNESCO 세계자연유산),제주특별자치도 서귀포시 성산읍 일출로 284-12,6998.0,11,성산읍,33.462233758483,126.936800689963
섭지코지,제주 서귀포시 성산읍 고성리,3770.0,11,성산읍,33.4493165910551,126.90826946679
아쿠아플라넷 제주,제주특별자치도 서귀포시 성산읍 섭지코지로 95,1649.0,11,성산읍,33.4329768585971,126.927795526895
제주올레 1코스,제주특별자치도 서귀포시 성산읍 오조리 396-1,1027.0,11,성산읍,33.4719633582091,126.91490546392
빛의 벙커,제주특별자치도 서귀포시 성산읍 고성리  2039-22,933.0,11,성산읍,33.4394462297885,126.899699215312
삼의악트레킹코스,제주특별자치도 제주시 아라동 산 24-2,54.0,11,아라동,33.4395285589061,126.561922654444
세미오름(삼의양오름),제주특별자치도 제주시 아라동 산 24-2,40.0,11,아라동,33.4395285589061,126.561922654444
산천단,제주특별자치도 제주시 아라일동 375-4,34.0,11,아라일동,33.447338490736,126.554377685968
용머리해안,제주특별자치도 서귀포시 안덕면 사계리 112-3,4790.0,11,안덕면,33.2334821266939,126.314630553022
카멜리아힐,제주 서귀포시 안덕면 병악로 166,3626.0,11,안덕면,33.290140185764,126.368365225196
오설록티뮤지엄,제주특별자치도 서귀포시 안덕면 신화역사로 15,2207.0,11,안덕면,33.3059240323368,126.289492214804
본태박물관,제주특별자치도 서귀포시 안덕면 산록남로762번길 69,1803.0,11,안덕면,33.303954807155,126.392568258817
산방산,제주특별자치도 서귀포시 안덕면 사계리 산 16,1802.0,11,안덕면,33.2423923919045,126.313950830111
새별오름,제주특별자치도 제주시 애월읍 봉성리 산 59-8,4559.0,11,애월읍,33.3674086988003,126.355252824574
윗세오름(웃세오름),제주특별자치도 제주시 애월읍 광령리 산 183-1,2339.0,11,애월읍,33.3708702070152,126.477745019755
애월한담해안산책로,제주특별자치도 제주시 애월읍 곽지리 1359,1641.0,11,애월읍,33.4590846763959,126.310575628004
애월해안도로,제주특별자치도 제주시 애월읍 애월해안로,1023.0,11,애월읍,0.0,0.0
구엄리돌염전,제주특별자치도 제주시 애월읍 애월해안로 708,496.0,11,애월읍,33.4825790977601,126.377408940163
제주컨트리클럽,제주특별자치도 제주시 영평동 2263-5,12.0,11,영평동,33.4303670043488,126.582307640104
오라동 청보리-메밀꽃밭,제주특별자치도 제주시 오라2동 산 76,162.0,11,오라2동,33.4271589152458,126.505783566255
민오름(오라동),제주특별자치도 제주시 오라2동 산 12,144.0,11,오라2동,33.4765241326101,126.506443018327
연대포구,제주특별자치도 제주시 외도2동,21.0,11,외도2동,33.4945540285904,126.433653396456
용연구름다리,제주 제주시 용담1동  2581,26.0,11,용담1동,0.0,0.0
용두암해안도로카페거리,제주특별자치도 제주시 용담3동,121.0,11,용담3동,33.5176026138478,126.492845368496
다끄네포구(용담포구),제주특별자치도 제주시 용담3동,57.0,11,용담3동,33.5176026138478,126.492845368496
우도(해양도립공원),제주특별자치도 제주시 우도면 삼양고수물길 1,3822.0,11,우도면,33.5194719510559,126.951016739939
검멀레해변,제주특별자치도 제주시 우도면 우도해안길,303.0,11,우도면,0.0,0.0
